1464013544 $GPRMC,142544,A,4045.40184,N,07402.18097,W,0.00,,230516,003.1,W*61
1464013545 $GPRMC,142545,A,4045.40184,N,07402.18097,W,0.00,,230516,003.1,W*60
1464013547 $GPRMC,142546,A,4045.40184,N,07402.18097,W,0.00,,230516,003.1,W*63
1464013548 $GPRMC,142548,A,4045.40184,N,07402.18097,W,0.00,,230516,003.1,W*6D
1464013549 $GPRMC,142549,A,4045.40184,N,07402.18097,W,0.00,,230516,003.1,W*6C
1464013551 $GPRMC,142550,A,4045.40184,N,07402.18097,W,0.00,,230516,003.1,W*64
1464013552 $GPRMC,142552,A,4045.40184,N,07402.18097,W,0.00,,230516,003.1,W*66
1464013553 $GPRMC,142553,A,4045.40184,N,07402.18097,W,0.00,,230516,003.1,W*67
1464013554 $GPRMC,142554,A,4045.40184,N,07402.18097,W,0.00,,230516,003.1,W*60
1464013556 $GPRMC,142556,A,4045.40184,N,07402.18097,W,0.00,,230516,003.1,W*62
1464013557 $GPRMC,142557,A,4045.40184,N,07402.18097,W,0.00,,230516,003.1,W*63
1464013559 $GPRMC,142558,A,4045.40184,N,07402.18097,W,0.00,,230516,003.1,W*6C
1464013560 $GPRMC,142600,A,4045.40184,N,07402.18097,W,0.00,,230516,003.1,W*62
1464013561 $GPRMC,142601,A,4045.40184,N,07402.18097,W,0.00,,230516,003.1,W*63
1464013563 $GPRMC,142602,A,4045.40184,N,07402.18097,W,0.00,,230516,003.1,W*60
1464013564 $GPRMC,142604,A,4045.40184,N,07402.18097,W,0.00,,230516,003.1,W*66
1464013565 $GPRMC,142605,A,4045.40184,N,07402.18097,W,0.00,,230516,003.1,W*67
1464013566 $GPRMC,142606,A,4045.40184,N,07402.18097,W,0.00,,230516,003.1,W*64
1464013568 $GPRMC,142608,A,4045.40184,N,07402.18097,W,0.00,,230516,003.1,W*6A
1464013570 $GPRMC,142609,A,4045.40184,N,07402.18097,W,0.00,,230516,003.1,W*6B
1464013571 $GPRMC,142610,A,4045.40184,N,07402.18097,W,0.00,,230516,003.1,W*63
1464013572 $GPRMC,142612,A,4045.40184,N,07402.18097,W,0.00,,230516,003.1,W*61
1464013573 $GPRMC,142613,A,4045.40184,N,07402.18097,W,0.00,,230516,003.1,W*60
1464013574 $GPRMC,142614,A,4045.40184,N,07402.18097,W,0.00,,230516,003.1,W*67
1464013575 $GPRMC,142615,A,4045.40184,N,07402.18097,W,0.00,,230516,003.1,W*66
1464013576 $GPRMC,142616,A,4045.40184,N,07402.18097,W,0.00,,230516,003.1,W*65
1464013578 $GPRMC,142617,A,4045.40184,N,07402.18097,W,0.00,,230516,003.1,W*64
1464013579 $GPRMC,142619,A,4045.40184,N,07402.18097,W,0.00,,230516,003.1,W*6A
1464013580 $GPRMC,142620,A,4045.40184,N,07402.18097,W,0.00,,230516,003.1,W*60
1464013582 $GPRMC,142621,A,4045.40184,N,07402.18097,W,0.00,,230516,003.1,W*61
1464013583 $GPRMC,142623,A,4045.40184,N,07402.18097,W,0.00,,230516,003.1,W*63
1464013584 $GPRMC,142624,A,4045.40184,N,07402.18097,W,0.00,,230516,003.1,W*64
1464013585 $GPRMC,142625,A,4045.40184,N,07402.18097,W,0.00,,230516,003.1,W*65
1464013587 $GPRMC,142627,A,4045.40184,N,07402.18097,W,0.00,,230516,003.1,W*67
1464013588 $GPRMC,142628,A,4045.40184,N,07402.18097,W,0.00,,230516,003.1,W*68
1464013589 $GPRMC,142629,A,4045.40184,N,07402.18097,W,0.00,,230516,003.1,W*69
1464013591 $GPRMC,142630,A,4045.40184,N,07402.18097,W,0.00,,230516,003.1,W*61
1464013592 $GPRMC,142632,A,4045.40184,N,07402.18097,W,0.00,,230516,003.1,W*63
1464013593 $GPRMC,142633,A,4045.40184,N,07402.18097,W,0.00,,230516,003.1,W*62
1464013594 $GPRMC,142634,A,4045.40184,N,07402.18097,W,0.00,,230516,003.1,W*65
1464013595 $GPRMC,142635,A,4045.40184,N,07402.18097,W,0.00,,230516,003.1,W*64
1464013597 $GPRMC,142636,A,4045.40184,N,07402.18097,W,0.00,,230516,003.1,W*67
1464013598 $GPRMC,142637,A,4045.40184,N,07402.18097,W,0.00,,230516,003.1,W*66
1464013599 $GPRMC,142639,A,4045.40184,N,07402.18097,W,0.00,,230516,003.1,W*68
1464013600 $GPRMC,142640,A,4045.40184,N,07402.18097,W,0.00,,230516,003.1,W*66
1464013601 $GPRMC,142641,A,4045.40184,N,07402.18097,W,0.00,,230516,003.1,W*67
1464013603 $GPRMC,142642,A,4045.40184,N,07402.18097,W,0.00,,230516,003.1,W*64
1464013604 $GPRMC,142644,A,4045.40184,N,07402.18097,W,0.00,,230516,003.1,W*62
1464013605 $GPRMC,142645,A,4045.40184,N,07402.18097,W,0.00,,230516,003.1,W*63
1464013606 $GPRMC,142646,A,4045.40184,N,07402.18097,W,0.00,,230516,003.1,W*60
1464013607 $GPRMC,142647,A,4045.40184,N,07402.18097,W,0.00,,230516,003.1,W*61
1464013608 $GPRMC,142648,A,4045.40184,N,07402.18097,W,0.00,,230516,003.1,W*6E
1464013609 $GPRMC,142649,A,4045.40184,N,07402.18097,W,0.00,,230516,003.1,W*6F
1464013610 $GPRMC,142650,A,4045.40184,N,07402.18097,W,0.00,,230516,003.1,W*67
1464013611 $GPRMC,142651,A,4045.40184,N,07402.18097,W,0.00,,230516,003.1,W*66
1464013613 $GPRMC,142653,A,4045.40184,N,07402.18097,W,0.00,,230516,003.1,W*64
1464013615 $GPRMC,142654,A,4045.40184,N,07402.18097,W,0.00,,230516,003.1,W*63
1464013616 $GPRMC,142656,A,4045.40184,N,07402.18097,W,0.00,,230516,003.1,W*61
1464013617 $GPRMC,142657,A,4045.40184,N,07402.18097,W,0.00,,230516,003.1,W*60
1464013618 $GPRMC,142658,A,4045.40184,N,07402.18097,W,0.00,,230516,003.1,W*6F
1464013619 $GPRMC,142659,A,4045.40184,N,07402.18097,W,0.00,,230516,003.1,W*6E
1464013620 $GPRMC,142700,A,4045.40184,N,07402.18097,W,0.00,,230516,003.1,W*63
1464013622 $GPRMC,142702,A,4045.40184,N,07402.18097,W,0.00,,230516,003.1,W*61
1464013623 $GPRMC,142703,A,4045.40184,N,07402.18097,W,0.00,,230516,003.1,W*60
1464013625 $GPRMC,142705,A,4045.40184,N,07402.18097,W,0.00,,230516,003.1,W*66
1464013626 $GPRMC,142706,A,4045.40184,N,07402.18097,W,0.00,,230516,003.1,W*65
1464013628 $GPRMC,142707,A,4045.40184,N,07402.18097,W,0.00,,230516,003.1,W*64
1464013629 $GPRMC,142708,A,4045.40184,N,07402.18097,W,0.00,,230516,003.1,W*6B
1464013630 $GPRMC,142710,A,4045.40184,N,07402.18097,W,0.00,,230516,003.1,W*62
1464013631 $GPRMC,142711,A,4045.40184,N,07402.18097,W,0.00,,230516,003.1,W*63
1464013632 $GPRMC,142712,A,4045.40184,N,07402.18097,W,0.00,,230516,003.1,W*60
1464013633 $GPRMC,142713,A,4045.40184,N,07402.18097,W,0.00,,230516,003.1,W*61
1464013634 $GPRMC,142714,A,4045.40184,N,07402.18097,W,0.00,,230516,003.1,W*66
1464013635 $GPRMC,142715,A,4045.40184,N,07402.18097,W,0.00,,230516,003.1,W*67
1464013636 $GPRMC,142716,A,4045.40184,N,07402.18097,W,0.00,,230516,003.1,W*64
1464013637 $GPRMC,142717,A,4045.40184,N,07402.18097,W,0.00,,230516,003.1,W*65
1464013638 $GPRMC,142718,A,4045.40184,N,07402.18097,W,0.00,,230516,003.1,W*6A
1464013640 $GPRMC,142720,A,4045.40184,N,07402.18097,W,0.00,,230516,003.1,W*61
1464013641 $GPRMC,142721,A,4045.40184,N,07402.18097,W,0.00,,230516,003.1,W*60
1464013643 $GPRMC,142723,A,4045.40184,N,07402.18097,W,0.00,,230516,003.1,W*62
1464013644 $GPRMC,142724,A,4045.40184,N,07402.18097,W,0.00,,230516,003.1,W*65
1464013645 $GPRMC,142725,A,4045.40184,N,07402.18097,W,0.00,,230516,003.1,W*64
1464013646 $GPRMC,142726,A,4045.40184,N,07402.18097,W,0.00,,230516,003.1,W*67
1464013648 $GPRMC,142727,A,4045.40184,N,07402.18097,W,0.00,,230516,003.1,W*66
1464013649 $GPRMC,142729,A,4045.40184,N,07402.18097,W,0.00,,230516,003.1,W*68
1464013650 $GPRMC,142730,A,4045.40184,N,07402.18097,W,0.00,,230516,003.1,W*60
1464013652 $GPRMC,142732,A,4045.40184,N,07402.18097,W,0.00,,230516,003.1,W*62
1464013653 $GPRMC,142733,A,4045.40184,N,07402.18097,W,0.00,,230516,003.1,W*63
1464013654 $GPRMC,142734,A,4045.40184,N,07402.18097,W,0.00,,230516,003.1,W*64
1464013656 $GPRMC,142736,A,4045.40184,N,07402.18097,W,0.00,,230516,003.1,W*66
1464013657 $GPRMC,142737,A,4045.40184,N,07402.18097,W,0.00,,230516,003.1,W*67
1464013658 $GPRMC,142738,A,4045.40184,N,07402.18097,W,0.00,,230516,003.1,W*68
1464013659 $GPRMC,142739,A,4045.40184,N,07402.18097,W,0.00,,230516,003.1,W*69
1464013661 $GPRMC,142740,A,4045.40184,N,07402.18097,W,0.00,,230516,003.1,W*67
1464013662 $GPRMC,142742,A,4045.40184,N,07402.18097,W,0.00,,230516,003.1,W*65
1464013663 $GPRMC,142743,A,4045.40184,N,07402.18097,W,0.00,,230516,003.1,W*64
1464013664 $GPRMC,142744,A,4045.40184,N,07402.18097,W,0.00,,230516,003.1,W*63
1464013665 $GPRMC,142745,A,4045.40184,N,07402.18097,W,0.00,,230516,003.1,W*62
1464013666 $GPRMC,142746,A,4045.40184,N,07402.18097,W,0.00,,230516,003.1,W*61
1464013668 $GPRMC,142747,A,4045.40184,N,07402.18097,W,0.00,,230516,003.1,W*60
1464013669 $GPRMC,142749,A,4045.40184,N,07402.18097,W,0.00,,230516,003.1,W*6E
1464013670 $GPRMC,142750,A,4045.40184,N,07402.18097,W,0.00,,230516,003.1,W*66
1464013671 $GPRMC,142751,A,4045.40184,N,07402.18097,W,0.00,,230516,003.1,W*67
1464013672 $GPRMC,142752,A,4045.40184,N,07402.18097,W,0.00,,230516,003.1,W*64
1464013673 $GPRMC,142753,A,4045.40184,N,07402.18097,W,0.00,,230516,003.1,W*65
1464013674 $GPRMC,142754,A,4045.40184,N,07402.18097,W,0.00,,230516,003.1,W*62
1464013675 $GPRMC,142755,A,4045.40184,N,07402.18097,W,0.00,,230516,003.1,W*63
1464013676 $GPRMC,142756,A,4045.40184,N,07402.18097,W,0.00,,230516,003.1,W*60
1464013678 $GPRMC,142757,A,4045.40184,N,07402.18097,W,0.00,,230516,003.1,W*61
1464013679 $GPRMC,142759,A,4045.40184,N,07402.18097,W,0.00,,230516,003.1,W*6F
1464013680 $GPRMC,142800,A,4045.40184,N,07402.18097,W,0.00,,230516,003.1,W*6C
1464013681 $GPRMC,142801,A,4045.40184,N,07402.18097,W,0.00,,230516,003.1,W*6D
1464013683 $GPRMC,142802,A,4045.40184,N,07402.18097,W,0.00,,230516,003.1,W*6E
1464013684 $GPRMC,142804,A,4045.40184,N,07402.18097,W,0.00,,230516,003.1,W*68
1464013685 $GPRMC,142805,A,4045.40184,N,07402.18097,W,0.00,,230516,003.1,W*69
1464013686 $GPRMC,142806,A,4045.40184,N,07402.18097,W,0.00,,230516,003.1,W*6A
1464013688 $GPRMC,142808,A,4045.40184,N,07402.18097,W,0.00,,230516,003.1,W*64
1464013689 $GPRMC,142809,A,4045.40184,N,07402.18097,W,0.00,,230516,003.1,W*65
1464013690 $GPRMC,142810,A,4045.40184,N,07402.18097,W,0.00,,230516,003.1,W*6D
1464013692 $GPRMC,142812,A,4045.40184,N,07402.18097,W,0.00,,230516,003.1,W*6F
1464013693 $GPRMC,142813,A,4045.40184,N,07402.18097,W,0.00,,230516,003.1,W*6E
1464013694 $GPRMC,142814,A,4045.40184,N,07402.18097,W,0.00,,230516,003.1,W*69
1464013695 $GPRMC,142815,A,4045.40184,N,07402.18097,W,0.00,,230516,003.1,W*68
1464013696 $GPRMC,142816,A,4045.40184,N,07402.18097,W,0.00,,230516,003.1,W*6B
1464013697 $GPRMC,142817,A,4045.40184,N,07402.18097,W,0.00,,230516,003.1,W*6A
1464013698 $GPRMC,142818,A,4045.40184,N,07402.18097,W,0.00,,230516,003.1,W*65
1464013700 $GPRMC,142820,A,4045.40184,N,07402.18097,W,0.00,,230516,003.1,W*6E
1464013701 $GPRMC,142821,A,4045.40184,N,07402.18097,W,0.00,,230516,003.1,W*6F
1464013702 $GPRMC,142822,A,4045.40184,N,07402.18097,W,0.00,,230516,003.1,W*6C
1464013703 $GPRMC,142823,A,4045.40184,N,07402.18097,W,0.00,,230516,003.1,W*6D
1464013704 $GPRMC,142824,A,4045.40184,N,07402.18097,W,0.00,,230516,003.1,W*6A
1464013706 $GPRMC,142826,A,4045.40184,N,07402.18097,W,0.00,,230516,003.1,W*68
1464013708 $GPRMC,142827,A,4045.40184,N,07402.18097,W,0.00,,230516,003.1,W*69
1464013709 $GPRMC,142829,A,4045.40184,N,07402.18097,W,0.00,,230516,003.1,W*67
1464013710 $GPRMC,142830,A,4045.40184,N,07402.18097,W,0.00,,230516,003.1,W*6F
1464013711 $GPRMC,142831,A,4045.40184,N,07402.18097,W,0.00,,230516,003.1,W*6E
1464013712 $GPRMC,142832,A,4045.40184,N,07402.18097,W,0.00,,230516,003.1,W*6D
1464013713 $GPRMC,142833,A,4045.40184,N,07402.18097,W,0.00,,230516,003.1,W*6C
1464013715 $GPRMC,142835,A,4045.40184,N,07402.18097,W,0.00,,230516,003.1,W*6A
1464013716 $GPRMC,142836,A,4045.40184,N,07402.18097,W,0.00,,230516,003.1,W*69
1464013717 $GPRMC,142837,A,4045.40184,N,07402.18097,W,0.00,,230516,003.1,W*68
1464013718 $GPRMC,142838,A,4045.40184,N,07402.18097,W,0.00,,230516,003.1,W*67
1464013720 $GPRMC,142839,A,4045.40184,N,07402.18097,W,0.00,,230516,003.1,W*66
1464013721 $GPRMC,142841,A,4045.40184,N,07402.18097,W,0.00,,230516,003.1,W*69
1464013723 $GPRMC,142842,A,4045.40184,N,07402.18097,W,0.00,,230516,003.1,W*6A
1464013724 $GPRMC,142844,A,4045.40184,N,07402.18097,W,0.00,,230516,003.1,W*6C
1464013725 $GPRMC,142845,A,4045.40184,N,07402.18097,W,0.00,,230516,003.1,W*6D
1464013726 $GPRMC,142846,A,4045.40184,N,07402.18097,W,0.00,,230516,003.1,W*6E
1464013727 $GPRMC,142847,A,4045.40184,N,07402.18097,W,0.00,,230516,003.1,W*6F
1464013729 $GPRMC,142848,A,4045.40184,N,07402.18097,W,0.00,,230516,003.1,W*60
1464013730 $GPRMC,142850,A,4045.40184,N,07402.18097,W,0.00,,230516,003.1,W*69
1464013731 $GPRMC,142851,A,4045.40184,N,07402.18097,W,0.00,,230516,003.1,W*68
1464013732 $GPRMC,142852,A,4045.40184,N,07402.18097,W,0.00,,230516,003.1,W*6B
1464013733 $GPRMC,142853,A,4045.40184,N,07402.18097,W,0.00,,230516,003.1,W*6A
1464013734 $GPRMC,142854,A,4045.40184,N,07402.18097,W,0.00,,230516,003.1,W*6D
1464013736 $GPRMC,142856,A,4045.40184,N,07402.18097,W,0.00,,230516,003.1,W*6F
1464013737 $GPRMC,142857,A,4045.40184,N,07402.18097,W,0.00,,230516,003.1,W*6E
1464013738 $GPRMC,142858,A,4045.40184,N,07402.18097,W,0.00,,230516,003.1,W*61
1464013739 $GPRMC,142859,A,4045.40184,N,07402.18097,W,0.00,,230516,003.1,W*60
1464013740 $GPRMC,142900,A,4045.40184,N,07402.18097,W,0.00,,230516,003.1,W*6D
1464013741 $GPRMC,142901,A,4045.40184,N,07402.18097,W,0.00,,230516,003.1,W*6C
1464013743 $GPRMC,142903,A,4045.40184,N,07402.18097,W,0.00,,230516,003.1,W*6E
1464013744 $GPRMC,142904,A,4045.40184,N,07402.18097,W,0.00,,230516,003.1,W*69
1464013745 $GPRMC,142905,A,4045.40184,N,07402.18097,W,0.00,,230516,003.1,W*68
1464013746 $GPRMC,142906,A,4045.40184,N,07402.18097,W,0.00,,230516,003.1,W*6B
1464013747 $GPRMC,142907,A,4045.40184,N,07402.18097,W,0.00,,230516,003.1,W*6A
1464013748 $GPRMC,142908,A,4045.40184,N,07402.18097,W,0.00,,230516,003.1,W*65
1464013749 $GPRMC,142909,A,4045.40184,N,07402.18097,W,0.00,,230516,003.1,W*64
1464013751 $GPRMC,142910,A,4045.40184,N,07402.18097,W,0.00,,230516,003.1,W*6C
1464013752 $GPRMC,142911,A,4045.40184,N,07402.18097,W,0.00,,230516,003.1,W*6D
1464013753 $GPRMC,142912,A,4045.40184,N,07402.18097,W,0.00,,230516,003.1,W*6E
1464013754 $GPRMC,142914,A,4045.40184,N,07402.18097,W,0.00,,230516,003.1,W*68
1464013755 $GPRMC,142915,A,4045.40184,N,07402.18097,W,0.00,,230516,003.1,W*69
1464013756 $GPRMC,142916,A,4045.40184,N,07402.18097,W,0.00,,230516,003.1,W*6A
1464013757 $GPRMC,142917,A,4045.40184,N,07402.18097,W,0.00,,230516,003.1,W*6B
1464013758 $GPRMC,142918,A,4045.40184,N,07402.18097,W,0.00,,230516,003.1,W*64
1464013759 $GPRMC,142919,A,4045.40184,N,07402.18097,W,0.00,,230516,003.1,W*65
1464013761 $GPRMC,142921,A,4045.40184,N,07402.18097,W,0.00,,230516,003.1,W*6E
1464013763 $GPRMC,142922,A,4045.40184,N,07402.18097,W,0.00,,230516,003.1,W*6D
1464013764 $GPRMC,142924,A,4045.40184,N,07402.18097,W,0.00,,230516,003.1,W*6B
1464013765 $GPRMC,142925,A,4045.40184,N,07402.18097,W,0.00,,230516,003.1,W*6A
1464013766 $GPRMC,142926,A,4045.40184,N,07402.18097,W,0.00,,230516,003.1,W*69
1464013768 $GPRMC,142927,A,4045.40184,N,07402.18097,W,0.00,,230516,003.1,W*68
1464013769 $GPRMC,142929,A,4045.40184,N,07402.18097,W,0.00,,230516,003.1,W*66
1464013770 $GPRMC,142930,A,4045.40184,N,07402.18097,W,0.00,,230516,003.1,W*6E
1464013771 $GPRMC,142931,A,4045.40184,N,07402.18097,W,0.00,,230516,003.1,W*6F
1464013772 $GPRMC,142932,A,4045.40184,N,07402.18097,W,0.00,,230516,003.1,W*6C
1464013774 $GPRMC,142933,A,4045.40184,N,07402.18097,W,0.00,,230516,003.1,W*6D
1464013775 $GPRMC,142935,A,4045.40184,N,07402.18097,W,0.00,,230516,003.1,W*6B
1464013776 $GPRMC,142936,A,4045.40184,N,07402.18097,W,0.00,,230516,003.1,W*68
1464013777 $GPRMC,142937,A,4045.40184,N,07402.18097,W,0.00,,230516,003.1,W*69
1464013778 $GPRMC,142938,A,4045.40184,N,07402.18097,W,0.00,,230516,003.1,W*66
1464013779 $GPRMC,142939,A,4045.40184,N,07402.18097,W,0.00,,230516,003.1,W*67
1464013781 $GPRMC,142941,A,4045.40184,N,07402.18097,W,0.00,,230516,003.1,W*68
1464013783 $GPRMC,142942,A,4045.40184,N,07402.18097,W,0.00,,230516,003.1,W*6B
1464013784 $GPRMC,142944,A,4045.40184,N,07402.18097,W,0.00,,230516,003.1,W*6D
1464013785 $GPRMC,142945,A,4045.40184,N,07402.18097,W,0.00,,230516,003.1,W*6C
1464013786 $GPRMC,142946,A,4045.40184,N,07402.18097,W,0.00,,230516,003.1,W*6F
1464013788 $GPRMC,142947,A,4045.40184,N,07402.18097,W,0.00,,230516,003.1,W*6E
1464013789 $GPRMC,142949,A,4045.40184,N,07402.18097,W,0.00,,230516,003.1,W*60
1464013790 $GPRMC,142950,A,4045.40184,N,07402.18097,W,0.00,,230516,003.1,W*68
1464013792 $GPRMC,142952,A,4045.40184,N,07402.18097,W,0.00,,230516,003.1,W*6A
1464013793 $GPRMC,142953,A,4045.40184,N,07402.18097,W,0.00,,230516,003.1,W*6B
1464013795 $GPRMC,142954,A,4045.40184,N,07402.18097,W,0.00,,230516,003.1,W*6C
1464013796 $GPRMC,142956,A,4045.40184,N,07402.18097,W,0.00,,230516,003.1,W*6E
1464013798 $GPRMC,142957,A,4045.40184,N,07402.18097,W,0.00,,230516,003.1,W*6F
1464013799 $GPRMC,142959,A,4045.40184,N,07402.18097,W,0.00,,230516,003.1,W*61
1464013800 $GPRMC,143000,A,4045.40184,N,07402.18097,W,0.00,,230516,003.1,W*65
1464013802 $GPRMC,143002,A,4045.40184,N,07402.18097,W,0.00,,230516,003.1,W*67
1464013804 $GPRMC,143003,A,4045.40184,N,07402.18097,W,0.00,,230516,003.1,W*66
1464013805 $GPRMC,143005,A,4045.40184,N,07402.18097,W,0.00,,230516,003.1,W*60
1464013807 $GPRMC,143006,A,4045.40184,N,07402.18097,W,0.00,,230516,003.1,W*63
1464013808 $GPRMC,143008,A,4045.40184,N,07402.18097,W,0.00,,230516,003.1,W*6D
1464013809 $GPRMC,143009,A,4045.40184,N,07402.18097,W,0.00,,230516,003.1,W*6C
1464013810 $GPRMC,143010,A,4045.40184,N,07402.18097,W,0.00,,230516,003.1,W*64
1464013811 $GPRMC,143011,A,4045.40184,N,07402.18097,W,0.00,,230516,003.1,W*65
1464013812 $GPRMC,143012,A,4045.40184,N,07402.18097,W,0.00,,230516,003.1,W*66
1464013814 $GPRMC,143014,A,4045.40184,N,07402.18097,W,0.00,,230516,003.1,W*60
1464013815 $GPRMC,143015,A,4045.40184,N,07402.18097,W,0.00,,230516,003.1,W*61
1464013817 $GPRMC,143017,A,4045.40184,N,07402.18097,W,0.00,,230516,003.1,W*63
1464013818 $GPRMC,143018,A,4045.40184,N,07402.18097,W,0.00,,230516,003.1,W*6C
1464013820 $GPRMC,143020,A,4045.40184,N,07402.18097,W,0.00,,230516,003.1,W*67
1464013821 $GPRMC,143021,A,4045.40184,N,07402.18097,W,0.00,,230516,003.1,W*66
1464013823 $GPRMC,143022,A,4045.40184,N,07402.18097,W,0.00,,230516,003.1,W*65
1464013824 $GPRMC,143024,A,4045.40184,N,07402.18097,W,0.00,,230516,003.1,W*63
1464013825 $GPRMC,143025,A,4045.40184,N,07402.18097,W,0.00,,230516,003.1,W*62
1464013826 $GPRMC,143026,A,4045.40184,N,07402.18097,W,0.00,,230516,003.1,W*61
1464013827 $GPRMC,143027,A,4045.40184,N,07402.18097,W,0.00,,230516,003.1,W*60
1464013828 $GPRMC,143028,A,4045.40184,N,07402.18097,W,0.00,,230516,003.1,W*6F
1464013829 $GPRMC,143029,A,4045.40184,N,07402.18097,W,0.00,,230516,003.1,W*6E
1464013830 $GPRMC,143030,A,4045.40184,N,07402.18097,W,0.00,,230516,003.1,W*66
1464013832 $GPRMC,143032,A,4045.40184,N,07402.18097,W,0.00,,230516,003.1,W*64
1464013834 $GPRMC,143033,A,4045.40184,N,07402.18097,W,0.00,,230516,003.1,W*65
1464013835 $GPRMC,143035,A,4045.40184,N,07402.18097,W,0.00,,230516,003.1,W*63
1464013836 $GPRMC,143036,A,4045.40184,N,07402.18097,W,0.00,,230516,003.1,W*60
1464013837 $GPRMC,143037,A,4045.40184,N,07402.18097,W,0.00,,230516,003.1,W*61
1464013838 $GPRMC,143038,A,4045.40184,N,07402.18097,W,0.00,,230516,003.1,W*6E
1464013839 $GPRMC,143039,A,4045.40184,N,07402.18097,W,0.00,,230516,003.1,W*6F
1464013841 $GPRMC,143041,A,4045.40184,N,07402.18097,W,0.00,,230516,003.1,W*60
1464013842 $GPRMC,143042,A,4045.40184,N,07402.18097,W,0.00,,230516,003.1,W*63
1464013843 $GPRMC,143043,A,4045.40184,N,07402.18097,W,0.00,,230516,003.1,W*62
1464013844 $GPRMC,143044,A,4045.40184,N,07402.18097,W,0.00,,230516,003.1,W*65
1464013845 $GPRMC,143045,A,4045.40184,N,07402.18097,W,0.00,,230516,003.1,W*64
1464013847 $GPRMC,143047,A,4045.40184,N,07402.18097,W,0.00,,230516,003.1,W*66
1464013848 $GPRMC,143048,A,4045.40184,N,07402.18097,W,0.00,,230516,003.1,W*69
1464013849 $GPRMC,143049,A,4045.40184,N,07402.18097,W,0.00,,230516,003.1,W*68
1464013850 $GPRMC,143050,A,4045.40184,N,07402.18097,W,0.00,,230516,003.1,W*60
1464013851 $GPRMC,143051,A,4045.40184,N,07402.18097,W,0.00,,230516,003.1,W*61
1464013853 $GPRMC,143052,A,4045.40184,N,07402.18097,W,0.00,,230516,003.1,W*62
1464013854 $GPRMC,143053,A,4045.40184,N,07402.18097,W,0.00,,230516,003.1,W*63
1464013855 $GPRMC,143055,A,4045.40184,N,07402.18097,W,0.00,,230516,003.1,W*65
1464013856 $GPRMC,143056,A,4045.40184,N,07402.18097,W,0.00,,230516,003.1,W*66
1464013858 $GPRMC,143057,A,4045.40184,N,07402.18097,W,0.00,,230516,003.1,W*67
1464013859 $GPRMC,143059,A,4045.40184,N,07402.18097,W,0.00,,230516,003.1,W*69
1464013861 $GPRMC,143100,A,4045.40184,N,07402.18097,W,0.00,,230516,003.1,W*64
1464013862 $GPRMC,143102,A,4045.40184,N,07402.18097,W,0.00,,230516,003.1,W*66
1464013863 $GPRMC,143103,A,4045.40184,N,07402.18097,W,0.00,,230516,003.1,W*67
1464013864 $GPRMC,143104,A,4045.40184,N,07402.18097,W,0.00,,230516,003.1,W*60
1464013865 $GPRMC,143105,A,4045.40184,N,07402.18097,W,0.00,,230516,003.1,W*61
1464013866 $GPRMC,143106,A,4045.40184,N,07402.18097,W,0.00,,230516,003.1,W*62
1464013868 $GPRMC,143108,A,4045.40184,N,07402.18097,W,0.00,,230516,003.1,W*6C
1464013869 $GPRMC,143109,A,4045.40184,N,07402.18097,W,0.00,,230516,003.1,W*6D
1464013871 $GPRMC,143111,A,4045.40184,N,07402.18097,W,0.00,,230516,003.1,W*64
1464013872 $GPRMC,143112,A,4045.40184,N,07402.18097,W,0.00,,230516,003.1,W*67
1464013873 $GPRMC,143113,A,4045.40184,N,07402.18097,W,0.00,,230516,003.1,W*66
1464013874 $GPRMC,143114,A,4045.40184,N,07402.18097,W,0.00,,230516,003.1,W*61
1464013875 $GPRMC,143115,A,4045.40184,N,07402.18097,W,0.00,,230516,003.1,W*60
1464013877 $GPRMC,143117,A,4045.40184,N,07402.18097,W,0.00,,230516,003.1,W*62
1464013878 $GPRMC,143118,A,4045.40184,N,07402.18097,W,0.00,,230516,003.1,W*6D
1464013880 $GPRMC,143119,A,4045.40184,N,07402.18097,W,0.00,,230516,003.1,W*6C
1464013881 $GPRMC,143121,A,4045.40184,N,07402.18097,W,0.00,,230516,003.1,W*67
1464013883 $GPRMC,143122,A,4045.40108,N,07402.18008,W,0.64,320.6,230516,003.1,W*4D
1464013884 $GPRMC,143124,A,4045.40113,N,07402.18044,W,0.00,291.8,230516,003.1,W*4E
1464013885 $GPRMC,143125,A,4045.40111,N,07402.18118,W,0.76,293.6,230516,003.1,W*48
1464013886 $GPRMC,143126,A,4045.40119,N,07402.18167,W,0.78,313.9,230516,003.1,W*43
1464013887 $GPRMC,143127,A,4045.40133,N,07402.18207,W,0.80,313.9,230516,003.1,W*48
1464013889 $GPRMC,143129,A,4045.40220,N,07402.18212,W,1.46,6.3,230516,003.1,W*45
1464013891 $GPRMC,143130,A,4045.40251,N,07402.18167,W,1.46,34.1,230516,003.1,W*79
1464013892 $GPRMC,143132,A,4045.40306,N,07402.17996,W,1.44,71.7,230516,003.1,W*74
1464013893 $GPRMC,143133,A,4045.40363,N,07402.17955,W,1.44,56.6,230516,003.1,W*7D
1464013895 $GPRMC,143135,A,4045.40445,N,07402.18052,W,1.57,295.3,230516,003.1,W*43
1464013897 $GPRMC,143136,A,4045.40469,N,07402.18123,W,1.32,275.3,230516,003.1,W*44
1464013897 $GPRMC,143137,A,4045.40530,N,07402.18201,W,1.32,293.9,230516,003.1,W*49
1464013899 $GPRMC,143139,A,4045.40643,N,07402.18319,W,1.09,317.8,230516,003.1,W*4C
1464013900 $GPRMC,143140,A,4045.40693,N,07402.18350,W,1.11,325.9,230516,003.1,W*4B
1464013901 $GPRMC,143141,A,4045.40731,N,07402.18358,W,1.09,345.9,230516,003.1,W*44
1464013902 $GPRMC,143142,A,4045.40732,N,07402.18351,W,0.99,355.1,230516,003.1,W*4C
1464013904 $GPRMC,143144,A,4045.40673,N,07402.18155,W,1.46,71.7,230516,003.1,W*78
1464013905 $GPRMC,143145,A,4045.40637,N,07402.18076,W,0.91,90.4,230516,003.1,W*7E
1464013907 $GPRMC,143147,A,4045.40602,N,07402.18007,W,0.00,102.0,230516,003.1,W*4A
1464013908 $GPRMC,143148,A,4045.40575,N,07402.17878,W,3.95,66.1,230516,003.1,W*74
1464013909 $GPRMC,143149,A,4045.40527,N,07402.17788,W,3.95,71.0,230516,003.1,W*75
1464013910 $GPRMC,143150,A,4045.40499,N,07402.17719,W,1.50,70.7,230516,003.1,W*7C
1464013912 $GPRMC,143151,A,4045.40486,N,07402.17629,W,1.50,92.5,230516,003.1,W*7F
1464013913 $GPRMC,143153,A,4045.40492,N,07402.17465,W,1.54,75.6,230516,003.1,W*7C
1464013914 $GPRMC,143153,A,4045.40492,N,07402.17465,W,1.54,75.6,230516,003.1,W*7C
1464013916 $GPRMC,143155,A,4045.40492,N,07402.17363,W,1.22,69.3,230516,003.1,W*72
1464013917 $GPRMC,143157,A,4045.40498,N,07402.17271,W,1.21,73.1,230516,003.1,W*72
1464013918 $GPRMC,143158,A,4045.40503,N,07402.17226,W,1.21,73.1,230516,003.1,W*7C
1464013919 $GPRMC,143159,A,4045.40508,N,07402.17183,W,1.21,73.1,230516,003.1,W*7A
1464013921 $GPRMC,143200,A,4045.40514,N,07402.17139,W,1.21,73.5,230516,003.1,W*7D
1464013922 $GPRMC,143201,A,4045.40511,N,07402.17088,W,1.19,73.8,230516,003.1,W*74
1464013923 $GPRMC,143203,A,4045.40477,N,07402.17028,W,1.15,81.2,230516,003.1,W*76
1464013924 $GPRMC,143204,A,4045.40446,N,07402.17021,W,,,230516,003.1,W*74
1464013926 $GPRMC,143205,A,4045.40417,N,07402.17011,W,,,230516,003.1,W*72
1464013927 $GPRMC,143207,A,4045.40387,N,07402.17030,W,0.00,116.0,230516,003.1,W*4B
1464013928 $GPRMC,143208,A,4045.40387,N,07402.17030,W,0.00,128.7,230516,003.1,W*4E
1464013930 $GPRMC,143209,A,4045.40387,N,07402.17030,W,0.00,128.0,230516,003.1,W*48
1464013935 $GPRMC,143214,A,4045.40246,N,07402.16916,W,1.59,123.0,230516,003.1,W*42
1464013936 $GPRMC,143216,A,4045.40307,N,07402.16941,W,0.70,74.5,230516,003.1,W*7A
1464013938 $GPRMC,143217,A,4045.40344,N,07402.16945,W,0.76,345.6,230516,003.1,W*4C
1464013939 $GPRMC,143218,A,4045.40442,N,07402.16836,W,0.76,13.0,230516,003.1,W*71
1464013951 $GPRMC,143230,A,4045.39966,N,07402.17422,W,1.15,150.1,230516,003.1,W*45
1464013952 $GPRMC,143232,A,4045.39925,N,07402.17404,W,0.84,146.2,230516,003.1,W*49
1464013953 $GPRMC,143233,A,4045.39911,N,07402.17448,W,0.78,156.1,230516,003.1,W*46
1464013960 $GPRMC,143240,A,4045.39913,N,07402.17914,W,1.32,83.3,230516,003.1,W*70
1464013966 $GPRMC,143245,A,4045.39958,N,07402.17689,W,2.29,84.7,230516,003.1,W*7B
1464013967 $GPRMC,143247,A,4045.39969,N,07402.17635,W,1.36,64.3,230516,003.1,W*7B
1464013968 $GPRMC,143248,A,4045.39980,N,07402.17656,W,1.26,293.6,230516,003.1,W*48
1464013970 $GPRMC,143249,A,4045.39972,N,07402.17735,W,1.90,265.4,230516,003.1,W*46
1464013971 $GPRMC,143251,A,4045.39927,N,07402.17903,W,1.90,247.1,230516,003.1,W*41
1464013974 $GPRMC,143253,A,4045.39903,N,07402.18010,W,1.22,251.4,230516,003.1,W*4A
1464013975 $GPRMC,143255,A,4045.39838,N,07402.18105,W,2.00,230.3,230516,003.1,W*43
1464013976 $GPRMC,143256,A,4045.39803,N,07402.18179,W,2.00,233.4,230516,003.1,W*47
1464013978 $GPRMC,143257,A,4045.39756,N,07402.18289,W,2.24,240.5,230516,003.1,W*46
1464013979 $GPRMC,143258,A,4045.39721,N,07402.18508,W,4.53,247.9,230516,003.1,W*4A
1464013980 $GPRMC,143300,A,4045.39655,N,07402.18783,W,3.03,249.3,230516,003.1,W*43
1464013981 $GPRMC,143301,A,4045.39646,N,07402.18847,W,2.43,251.0,230516,003.1,W*48
1464013983 $GPRMC,143302,A,4045.39650,N,07402.18898,W,1.87,260.9,230516,003.1,W*4E
1464013984 $GPRMC,143304,A,4045.39653,N,07402.19039,W,2.08,263.7,230516,003.1,W*40
1464013985 $GPRMC,143305,A,4045.39643,N,07402.19116,W,2.08,260.2,230516,003.1,W*4A
1464013986 $GPRMC,143306,A,4045.39654,N,07402.19218,W,2.16,266.1,230516,003.1,W*48
1464013988 $GPRMC,143307,A,4045.39669,N,07402.19319,W,2.27,270.4,230516,003.1,W*47
1464013989 $GPRMC,143309,A,4045.39702,N,07402.19434,W,2.59,278.1,230516,003.1,W*49
1464013991 $GPRMC,143310,A,4045.39868,N,07402.19717,W,3.29,292.9,230516,003.1,W*4A
1464013992 $GPRMC,143311,A,4045.40083,N,07402.19628,W,3.42,322.4,230516,003.1,W*4F
1464013993 $GPRMC,143312,A,4045.40271,N,07402.19482,W,3.19,354.7,230516,003.1,W*4D
1464013994 $GPRMC,143314,A,4045.40463,N,07402.18977,W,3.19,52.4,230516,003.1,W*7E
1464013995 $GPRMC,143315,A,4045.40539,N,07402.18791,W,3.01,62.9,230516,003.1,W*70
1464013996 $GPRMC,143316,A,4045.40562,N,07402.18665,W,2.43,51.0,230516,003.1,W*79
1464013998 $GPRMC,143317,A,4045.40621,N,07402.18489,W,3.25,53.4,230516,003.1,W*7B
1464013999 $GPRMC,143319,A,4045.40639,N,07402.18397,W,2.27,43.2,230516,003.1,W*70
1464014000 $GPRMC,143320,A,4045.40639,N,07402.18397,W,0.00,20.0,230516,003.1,W*7A
1464014001 $GPRMC,143321,A,4045.40375,N,07402.18650,W,0.00,20.0,230516,003.1,W*78
1464014003 $GPRMC,143323,A,4045.40375,N,07402.18650,W,0.00,20.0,230516,003.1,W*7A
1464014004 $GPRMC,143324,A,4045.40375,N,07402.18650,W,0.00,20.0,230516,003.1,W*7D
1464014005 $GPRMC,143325,A,4045.40375,N,07402.18650,W,0.00,20.0,230516,003.1,W*7C
1464014006 $GPRMC,143326,A,4045.40375,N,07402.18650,W,0.00,20.0,230516,003.1,W*7F
1464014007 $GPRMC,143327,A,4045.40375,N,07402.18650,W,0.00,20.0,230516,003.1,W*7E
1464014009 $GPRMC,143329,A,4045.40375,N,07402.18650,W,0.00,248.2,230516,003.1,W*4E
1464014010 $GPRMC,143330,A,4045.40229,N,07402.18821,W,0.89,308.0,230516,003.1,W*40
1464014012 $GPRMC,143331,A,4045.40246,N,07402.18839,W,0.89,319.6,230516,003.1,W*47
1464014013 $GPRMC,143333,A,4045.40248,N,07402.18824,W,0.00,130.4,230516,003.1,W*4D
1464014014 $GPRMC,143334,A,4045.40248,N,07402.18824,W,0.00,130.4,230516,003.1,W*4A
1464014016 $GPRMC,143336,A,4045.40248,N,07402.18824,W,0.00,130.4,230516,003.1,W*48
1464014017 $GPRMC,143337,A,4045.40248,N,07402.18824,W,0.00,130.4,230516,003.1,W*49
1464014018 $GPRMC,143338,A,4045.40248,N,07402.18824,W,0.00,130.4,230516,003.1,W*46
1464014019 $GPRMC,143339,A,4045.40248,N,07402.18824,W,0.00,130.4,230516,003.1,W*47
1464014020 $GPRMC,143340,A,4045.40248,N,07402.18824,W,0.00,130.4,230516,003.1,W*49
1464014022 $GPRMC,143341,A,4045.40248,N,07402.18824,W,0.00,130.4,230516,003.1,W*48
1464014023 $GPRMC,143343,A,4045.40248,N,07402.18824,W,0.00,130.4,230516,003.1,W*4A
1464014024 $GPRMC,143344,A,4045.40248,N,07402.18824,W,0.00,130.4,230516,003.1,W*4D
1464014026 $GPRMC,143345,A,4045.40248,N,07402.18824,W,0.00,130.4,230516,003.1,W*4C
1464014027 $GPRMC,143346,A,4045.40248,N,07402.18824,W,0.00,130.4,230516,003.1,W*4F
1464014028 $GPRMC,143348,A,4045.40248,N,07402.18824,W,0.00,130.4,230516,003.1,W*41
1464014029 $GPRMC,143349,A,4045.40248,N,07402.18824,W,0.00,130.4,230516,003.1,W*40
1464014031 $GPRMC,143351,A,4045.40248,N,07402.18824,W,0.00,130.4,230516,003.1,W*49
1464014032 $GPRMC,143352,A,4045.40248,N,07402.18824,W,0.00,130.4,230516,003.1,W*4A
1464014033 $GPRMC,143353,A,4045.40248,N,07402.18824,W,0.00,130.4,230516,003.1,W*4B
1464014035 $GPRMC,143354,A,4045.40248,N,07402.18824,W,0.00,130.4,230516,003.1,W*4C
1464014036 $GPRMC,143355,A,4045.40248,N,07402.18824,W,0.00,130.4,230516,003.1,W*4D
1464014037 $GPRMC,143357,A,4045.40248,N,07402.18824,W,0.00,130.4,230516,003.1,W*4F
1464014039 $GPRMC,143358,A,4045.40248,N,07402.18824,W,0.00,130.4,230516,003.1,W*40
1464014040 $GPRMC,143400,A,4045.40248,N,07402.18824,W,0.00,130.4,230516,003.1,W*4A
1464014041 $GPRMC,143401,A,4045.40248,N,07402.18824,W,0.00,130.4,230516,003.1,W*4B
1464014042 $GPRMC,143402,A,4045.40248,N,07402.18824,W,0.00,,230516,003.1,W*60
1464014044 $GPRMC,143403,A,4045.40248,N,07402.18824,W,0.00,,230516,003.1,W*61
1464014045 $GPRMC,143404,A,4045.40248,N,07402.18824,W,0.00,,230516,003.1,W*66
1464014046 $GPRMC,143406,A,4045.40248,N,07402.18824,W,0.00,,230516,003.1,W*64
1464014047 $GPRMC,143407,A,4045.40248,N,07402.18824,W,0.00,,230516,003.1,W*65
1464014048 $GPRMC,143408,A,4045.40248,N,07402.18824,W,0.00,,230516,003.1,W*6A
1464014049 $GPRMC,143409,A,4045.40248,N,07402.18824,W,0.00,,230516,003.1,W*6B
1464014051 $GPRMC,143411,A,4045.40248,N,07402.18824,W,0.00,,230516,003.1,W*62
1464014052 $GPRMC,143412,A,4045.40248,N,07402.18824,W,0.00,,230516,003.1,W*61
1464014054 $GPRMC,143414,A,4045.40248,N,07402.18824,W,0.00,,230516,003.1,W*67
1464014056 $GPRMC,143415,A,4045.40248,N,07402.18824,W,0.00,,230516,003.1,W*66
1464014057 $GPRMC,143417,A,4045.40248,N,07402.18824,W,0.00,,230516,003.1,W*64
1464014058 $GPRMC,143418,A,4045.40248,N,07402.18824,W,0.00,,230516,003.1,W*6B
1464014059 $GPRMC,143419,A,4045.40248,N,07402.18824,W,0.00,,230516,003.1,W*6A
1464014060 $GPRMC,143420,A,4045.40248,N,07402.18824,W,0.00,,230516,003.1,W*60
1464014061 $GPRMC,143421,A,4045.40248,N,07402.18824,W,0.00,,230516,003.1,W*61
1464014063 $GPRMC,143423,A,4045.40248,N,07402.18824,W,0.00,,230516,003.1,W*63
1464014064 $GPRMC,143424,A,4045.40248,N,07402.18824,W,0.00,,230516,003.1,W*64
1464014065 $GPRMC,143425,A,4045.40248,N,07402.18824,W,0.00,,230516,003.1,W*65
1464014066 $GPRMC,143426,A,4045.40248,N,07402.18824,W,0.00,,230516,003.1,W*66
1464014072 $GPRMC,143431,A,4045.40142,N,07402.18660,W,1.52,359.6,230516,003.1,W*46
1464014074 $GPRMC,143433,A,4045.40151,N,07402.18574,W,0.33,23.2,230516,003.1,W*7C
1464014079 $GPRMC,143439,A,4045.40094,N,07402.18374,W,0.29,79.1,230516,003.1,W*7F
1464014080 $GPRMC,143440,A,4045.40084,N,07402.18354,W,0.43,81.2,230516,003.1,W*7A
1464014083 $GPRMC,143442,A,4045.40050,N,07402.18339,W,0.00,160.0,230516,003.1,W*41
1464014084 $GPRMC,143444,A,4045.39978,N,07402.18277,W,0.31,303.0,230516,003.1,W*44
1464014085 $GPRMC,143445,A,4045.39978,N,07402.18277,W,0.00,345.9,230516,003.1,W*4C
1464014086 $GPRMC,143446,A,4045.39978,N,07402.18277,W,0.00,329.8,230516,003.1,W*44
1464014093 $GPRMC,143452,A,4045.39872,N,07402.18026,W,0.33,18.3,230516,003.1,W*76
1464014094 $GPRMC,143453,A,4045.39897,N,07402.18096,W,0.33,289.7,230516,003.1,W*49
1464014095 $GPRMC,143454,A,4045.39902,N,07402.18185,W,1.65,277.0,230516,003.1,W*44
1464014096 $GPRMC,143455,A,4045.39868,N,07402.18261,W,2.24,252.8,230516,003.1,W*48
1464014097 $GPRMC,143457,A,4045.39699,N,07402.18374,W,3.15,201.8,230516,003.1,W*4A
1464014098 $GPRMC,143458,A,4045.39592,N,07402.18403,W,3.15,198.6,230516,003.1,W*47
1464014099 $GPRMC,143459,A,4045.39456,N,07402.18429,W,3.27,198.3,230516,003.1,W*43
1464014629 $GPRMC,144349,A,4045.41378,N,07402.18502,W,3.03,28.5,230516,003.1,W*74
1464014631 $GPRMC,144350,A,4045.41486,N,07402.18445,W,3.03,23.9,230516,003.1,W*7F
1464014632 $GPRMC,144351,A,4045.41593,N,07402.18392,W,3.23,23.6,230516,003.1,W*7B
1464014633 $GPRMC,144352,A,4045.41673,N,07402.18481,W,3.23,13.7,230516,003.1,W*72
1464014634 $GPRMC,144353,A,4045.41734,N,07402.18667,W,2.84,0.7,230516,003.1,W*45
1464014635 $GPRMC,144355,A,4045.41234,N,07402.20222,W,0.56,16.9,230516,003.1,W*7C
1464014636 $GPRMC,144356,A,4045.41221,N,07402.20122,W,0.95,58.7,230516,003.1,W*73
1464014638 $GPRMC,144358,A,4045.41239,N,07402.20110,W,0.93,10.2,230516,003.1,W*7A
1464014640 $GPRMC,144359,A,4045.41153,N,07402.20040,W,0.68,342.1,230516,003.1,W*43
1464014641 $GPRMC,144401,A,4045.40910,N,07402.19942,W,1.46,202.1,230516,003.1,W*4E
1464014642 $GPRMC,144402,A,4045.40736,N,07402.19868,W,1.46,181.8,230516,003.1,W*4F
1464014643 $GPRMC,144403,A,4045.40556,N,07402.19793,W,3.56,171.9,230516,003.1,W*4C
1464014645 $GPRMC,144405,A,4045.40263,N,07402.19660,W,3.25,165.6,230516,003.1,W*48
1464014646 $GPRMC,144406,A,4045.40043,N,07402.19557,W,3.69,165.9,230516,003.1,W*4B
1464014648 $GPRMC,144408,A,4045.39841,N,07402.19719,W,2.66,220.8,230516,003.1,W*44
1464014649 $GPRMC,144409,A,4045.39814,N,07402.19841,W,2.55,258.0,230516,003.1,W*40
1464014651 $GPRMC,144411,A,4045.39783,N,07402.19973,W,1.61,246.1,230516,003.1,W*42
1464014652 $GPRMC,144412,A,4045.39737,N,07402.20102,W,1.61,239.8,230516,003.1,W*4B
1464014653 $GPRMC,144413,A,4045.39695,N,07402.20223,W,2.20,241.5,230516,003.1,W*47
1464014655 $GPRMC,144415,A,4045.40033,N,07402.19971,W,3.15,1.4,230516,003.1,W*43
1464014664 $GPRMC,144423,A,4045.40210,N,07402.18920,W,0.80,298.8,230516,003.1,W*41
1464014668 $GPRMC,144427,A,4045.40223,N,07402.18732,W,1.19,324.8,230516,003.1,W*4F
1464014669 $GPRMC,144429,A,4045.40319,N,07402.18735,W,1.77,322.7,230516,003.1,W*4F
1464014671 $GPRMC,144430,A,4045.40366,N,07402.18753,W,1.63,321.3,230516,003.1,W*4D
1464014672 $GPRMC,144431,A,4045.40406,N,07402.18771,W,1.63,319.9,230516,003.1,W*4C
1464014673 $GPRMC,144433,A,4045.40458,N,07402.18822,W,1.44,311.8,230516,003.1,W*40
1464014674 $GPRMC,144434,A,4045.40455,N,07402.18819,W,,,230516,003.1,W*78
1464014677 $GPRMC,144436,A,4045.40417,N,07402.18832,W,0.95,236.6,230516,003.1,W*48
1464014678 $GPRMC,144438,A,4045.40349,N,07402.18861,W,0.97,230.3,230516,003.1,W*4D
1464014680 $GPRMC,144440,A,4045.40461,N,07402.19088,W,3.85,318.5,230516,003.1,W*4C
1464014683 $GPRMC,144442,A,4045.40653,N,07402.19260,W,4.12,336.4,230516,003.1,W*4D
1464014684 $GPRMC,144444,A,4045.40866,N,07402.19371,W,4.10,337.9,230516,003.1,W*4C
1464014686 $GPRMC,144445,A,4045.40972,N,07402.19424,W,4.10,338.2,230516,003.1,W*4A
1464014687 $GPRMC,144447,A,4045.41209,N,07402.19554,W,4.08,337.9,230516,003.1,W*45
1464014688 $GPRMC,144448,A,4045.41329,N,07402.19621,W,4.16,337.7,230516,003.1,W*49
1464014690 $GPRMC,144450,A,4045.41570,N,07402.19757,W,4.11,337.5,230516,003.1,W*4F
1464014691 $GPRMC,144451,A,4045.41685,N,07402.19818,W,4.05,,230516,003.1,W*6A
1464014692 $GPRMC,144452,A,4045.41796,N,07402.19874,W,3.98,,230516,003.1,W*63
1464014694 $GPRMC,144454,A,4045.42021,N,07402.19956,W,3.84,,230516,003.1,W*61
1464014695 $GPRMC,144455,A,4045.42109,N,07402.19971,W,3.78,,230516,003.1,W*6D
1464014697 $GPRMC,144457,A,4045.42280,N,07402.19964,W,3.65,,230516,003.1,W*65
1464014698 $GPRMC,144458,A,4045.42364,N,07402.19950,W,3.58,,230516,003.1,W*68
1464014699 $GPRMC,144459,A,4045.42433,N,07402.19927,W,3.52,,230516,003.1,W*66
1464014701 $GPRMC,144501,A,4045.42453,N,07402.19825,W,3.39,,230516,003.1,W*62
1464014702 $GPRMC,144502,A,4045.42424,N,07402.19739,W,3.31,,230516,003.1,W*6B
1464014704 $GPRMC,144503,A,4045.42273,N,07402.19340,W,3.22,,230516,003.1,W*66
1464014705 $GPRMC,144505,A,4045.42023,N,07402.18640,W,1.72,,230516,003.1,W*64
1464014706 $GPRMC,144506,A,4045.41922,N,07402.18353,W,1.66,,230516,003.1,W*6E
1464014707 $GPRMC,144507,A,4045.40221,N,07402.17504,W,1.71,128.7,230516,003.1,W*49
1464014708 $GPRMC,144508,A,4045.40209,N,07402.17484,W,0.70,127.6,230516,003.1,W*4B
1464014709 $GPRMC,144509,A,4045.40198,N,07402.17464,W,0.64,126.6,230516,003.1,W*4B
1464014711 $GPRMC,144511,A,4045.40177,N,07402.17485,W,0.60,144.8,230516,003.1,W*42
1464014713 $GPRMC,144512,A,4045.40169,N,07402.17536,W,0.60,256.3,230516,003.1,W*4C
1464014714 $GPRMC,144514,A,4045.40435,N,07402.17638,W,2.18,342.4,230516,003.1,W*45
1464014716 $GPRMC,144515,A,4045.40519,N,07402.17600,W,1.98,1.8,230516,003.1,W*43
1464014717 $GPRMC,144517,A,4045.40519,N,07402.17456,W,0.74,116.7,230516,003.1,W*4B
1464014718 $GPRMC,144518,A,4045.40474,N,07402.17378,W,0.91,128.0,230516,003.1,W*44
1464014719 $GPRMC,144519,A,4045.40455,N,07402.17313,W,0.91,129.4,230516,003.1,W*4E
1464014721 $GPRMC,144520,A,4045.40469,N,07402.17269,W,0.80,97.4,230516,003.1,W*73
1464014722 $GPRMC,144522,A,4045.40675,N,07402.17268,W,1.32,11.2,230516,003.1,W*7F
1464014723 $GPRMC,144523,A,4045.40769,N,07402.17276,W,1.34,9.8,230516,003.1,W*48
1464014725 $GPRMC,144524,A,4045.40854,N,07402.17279,W,1.38,10.2,230516,003.1,W*7F
1464014726 $GPRMC,144526,A,4045.40997,N,07402.17263,W,1.24,20.7,230516,003.1,W*73
1464014728 $GPRMC,144527,A,4045.41054,N,07402.17247,W,1.24,26.0,230516,003.1,W*72
1464014729 $GPRMC,144529,A,4045.41127,N,07402.17239,W,1.22,23.6,230516,003.1,W*75
1464014730 $GPRMC,144530,A,4045.41156,N,07402.17313,W,1.22,21.1,230516,003.1,W*77
1464014731 $GPRMC,144531,A,4045.41061,N,07402.17277,W,1.26,73.8,230516,003.1,W*7A
1464014733 $GPRMC,144532,A,4045.40956,N,07402.17215,W,2.76,98.4,230516,003.1,W*7E
1464014734 $GPRMC,144533,A,4045.40881,N,07402.17169,W,2.27,106.5,230516,003.1,W*4F
1464014735 $GPRMC,144535,A,4045.40023,N,07402.19406,W,0.43,166.3,230516,003.1,W*4B
1464014738 $GPRMC,144536,A,4045.39981,N,07402.19343,W,0.45,153.3,230516,003.1,W*41
1464014738 $GPRMC,144536,A,4045.39981,N,07402.19343,W,0.45,153.3,230516,003.1,W*41
