1466719104 $GPRMC,215823,A,4041.12180,N,07359.31874,W,,,230616,003.1,W*71
1466719106 $GPRMC,215826,A,4041.11999,N,07359.32039,W,,,230616,003.1,W*75
1466719108 $GPRMC,215826,A,4041.11999,N,07359.32039,W,,,230616,003.1,W*75
1466719110 $GPRMC,215826,A,4041.11999,N,07359.32039,W,,,230616,003.1,W*75
1466719111 $GPRMC,215826,A,4041.11999,N,07359.32039,W,,,230616,003.1,W*75
1466719112 $GPRMC,215832,A,4041.11999,N,07359.32039,W,,,230616,003.1,W*70
1466719114 $GPRMC,215832,A,4041.11999,N,07359.32039,W,,,230616,003.1,W*70
1466719116 $GPRMC,215835,A,4041.11987,N,07359.32031,W,,,230616,003.1,W*70
1466719117 $GPRMC,215835,A,4041.11987,N,07359.32031,W,,,230616,003.1,W*70
1466719119 $GPRMC,215835,A,4041.11987,N,07359.32031,W,,,230616,003.1,W*70
1466719120 $GPRMC,215835,A,4041.11987,N,07359.32031,W,,,230616,003.1,W*70
1466719122 $GPRMC,215842,A,4041.12047,N,07359.31966,W,0.00,,230616,003.1,W*60
1466719123 $GPRMC,215843,A,4041.12047,N,07359.31966,W,0.00,,230616,003.1,W*61
1466719125 $GPRMC,215845,A,4041.12047,N,07359.31966,W,0.00,,230616,003.1,W*67
1466719126 $GPRMC,215846,A,4041.12047,N,07359.31966,W,0.00,,230616,003.1,W*64
1466719127 $GPRMC,215847,A,4041.12047,N,07359.31966,W,0.00,,230616,003.1,W*65
1466719128 $GPRMC,215848,A,4041.12047,N,07359.31966,W,0.00,,230616,003.1,W*6A
1466719130 $GPRMC,215849,A,4041.12047,N,07359.31966,W,0.00,,230616,003.1,W*6B
1466719131 $GPRMC,215851,A,4041.12047,N,07359.31966,W,0.00,,230616,003.1,W*62
1466719132 $GPRMC,215851,A,4041.12047,N,07359.31966,W,0.00,,230616,003.1,W*62
1466719133 $GPRMC,215853,A,4041.12047,N,07359.31966,W,0.00,,230616,003.1,W*60
1466719134 $GPRMC,215854,A,4041.12047,N,07359.31966,W,0.00,,230616,003.1,W*67
1466719136 $GPRMC,215856,A,4041.12047,N,07359.31966,W,0.00,,230616,003.1,W*65
1466719137 $GPRMC,215857,A,4041.12047,N,07359.31966,W,0.00,,230616,003.1,W*64
1466719138 $GPRMC,215858,A,4041.12047,N,07359.31966,W,0.00,,230616,003.1,W*6B
1466719140 $GPRMC,215900,A,4041.12047,N,07359.31966,W,0.00,,230616,003.1,W*67
1466719141 $GPRMC,215901,A,4041.12047,N,07359.31966,W,0.00,,230616,003.1,W*66
1466719143 $GPRMC,215903,A,4041.12047,N,07359.31966,W,0.00,,230616,003.1,W*64
1466719144 $GPRMC,215904,A,4041.12047,N,07359.31966,W,0.00,,230616,003.1,W*63
1466719145 $GPRMC,215905,A,4041.12047,N,07359.31966,W,0.00,,230616,003.1,W*62
1466719146 $GPRMC,215906,A,4041.12047,N,07359.31966,W,0.00,,230616,003.1,W*61
1466719147 $GPRMC,215907,A,4041.12047,N,07359.31966,W,0.00,,230616,003.1,W*60
1466719149 $GPRMC,215909,A,4041.12047,N,07359.31966,W,0.00,,230616,003.1,W*6E
1466719150 $GPRMC,215910,A,4041.12047,N,07359.31966,W,0.00,,230616,003.1,W*66
1466719152 $GPRMC,215911,A,4041.12047,N,07359.31966,W,0.00,,230616,003.1,W*67
1466719153 $GPRMC,215913,A,4041.12047,N,07359.31966,W,0.00,,230616,003.1,W*65
1466719155 $GPRMC,215915,A,4041.12047,N,07359.31966,W,0.00,,230616,003.1,W*63
1466719156 $GPRMC,215916,A,4041.12047,N,07359.31966,W,0.00,,230616,003.1,W*60
1466719157 $GPRMC,215917,A,4041.12047,N,07359.31966,W,0.00,,230616,003.1,W*61
1466719158 $GPRMC,215918,A,4041.12047,N,07359.31966,W,0.00,,230616,003.1,W*6E
1466719159 $GPRMC,215919,A,4041.12047,N,07359.31966,W,0.00,,230616,003.1,W*6F
1466719161 $GPRMC,215921,A,4041.12047,N,07359.31966,W,0.00,,230616,003.1,W*64
1466719162 $GPRMC,215922,A,4041.12047,N,07359.31966,W,0.00,,230616,003.1,W*67
1466719163 $GPRMC,215923,A,4041.12047,N,07359.31966,W,0.00,,230616,003.1,W*66
1466719165 $GPRMC,215924,A,4041.12047,N,07359.31966,W,0.00,,230616,003.1,W*61
1466719166 $GPRMC,215926,A,4041.12047,N,07359.31966,W,0.00,,230616,003.1,W*63
1466719167 $GPRMC,215927,A,4041.12047,N,07359.31966,W,0.00,,230616,003.1,W*62
1466719168 $GPRMC,215928,A,4041.12047,N,07359.31966,W,0.00,,230616,003.1,W*6D
1466719170 $GPRMC,215930,A,4041.12047,N,07359.31966,W,0.00,,230616,003.1,W*64
1466719171 $GPRMC,215931,A,4041.12047,N,07359.31966,W,0.00,,230616,003.1,W*65
1466719173 $GPRMC,215933,A,4041.12047,N,07359.31966,W,0.00,,230616,003.1,W*67
1466719174 $GPRMC,215934,A,4041.12047,N,07359.31966,W,0.00,,230616,003.1,W*60
1466719175 $GPRMC,215935,A,4041.12047,N,07359.31966,W,0.00,,230616,003.1,W*61
1466719177 $GPRMC,215937,A,4041.12047,N,07359.31966,W,0.00,,230616,003.1,W*63
1466719178 $GPRMC,215938,A,4041.12047,N,07359.31966,W,0.00,,230616,003.1,W*6C
1466719179 $GPRMC,215939,A,4041.12047,N,07359.31966,W,0.00,,230616,003.1,W*6D
1466719180 $GPRMC,215940,A,4041.12047,N,07359.31966,W,0.00,,230616,003.1,W*63
1466719182 $GPRMC,215942,A,4041.12047,N,07359.31966,W,0.00,,230616,003.1,W*61
1466719183 $GPRMC,215943,A,4041.12047,N,07359.31966,W,0.00,,230616,003.1,W*60
1466719184 $GPRMC,215944,A,4041.12047,N,07359.31966,W,0.00,,230616,003.1,W*67
1466719185 $GPRMC,215945,A,4041.12047,N,07359.31966,W,0.00,,230616,003.1,W*66
1466719186 $GPRMC,215946,A,4041.12047,N,07359.31966,W,0.00,,230616,003.1,W*65
1466719187 $GPRMC,215947,A,4041.12047,N,07359.31966,W,0.00,,230616,003.1,W*64
1466719188 $GPRMC,215948,A,4041.12047,N,07359.31966,W,0.00,,230616,003.1,W*6B
1466719190 $GPRMC,215950,A,4041.12047,N,07359.31966,W,0.00,,230616,003.1,W*62
1466719191 $GPRMC,215951,A,4041.12047,N,07359.31966,W,0.00,,230616,003.1,W*63
1466719192 $GPRMC,215952,A,4041.12047,N,07359.31966,W,0.00,,230616,003.1,W*60
1466719193 $GPRMC,215953,A,4041.12047,N,07359.31966,W,0.00,,230616,003.1,W*61
1466719194 $GPRMC,215954,A,4041.12047,N,07359.31966,W,0.00,,230616,003.1,W*66
1466719195 $GPRMC,215955,A,4041.12047,N,07359.31966,W,0.00,,230616,003.1,W*67
1466719197 $GPRMC,215957,A,4041.12047,N,07359.31966,W,0.00,,230616,003.1,W*65
1466719198 $GPRMC,215958,A,4041.12047,N,07359.31966,W,0.00,,230616,003.1,W*6A
1466719200 $GPRMC,220000,A,4041.12047,N,07359.31966,W,0.00,,230616,003.1,W*68
1466719201 $GPRMC,220001,A,4041.12047,N,07359.31966,W,0.00,,230616,003.1,W*69
1466719202 $GPRMC,220002,A,4041.12047,N,07359.31966,W,0.00,,230616,003.1,W*6A
1466719203 $GPRMC,220003,A,4041.12047,N,07359.31966,W,0.00,,230616,003.1,W*6B
1466719205 $GPRMC,220005,A,4041.12047,N,07359.31966,W,0.00,,230616,003.1,W*6D
1466719207 $GPRMC,220006,A,4041.12047,N,07359.31966,W,0.00,,230616,003.1,W*6E
1466719208 $GPRMC,220008,A,4041.12047,N,07359.31966,W,0.00,,230616,003.1,W*60
1466719209 $GPRMC,220009,A,4041.12047,N,07359.31966,W,0.00,,230616,003.1,W*61
1466719210 $GPRMC,220010,A,4041.12047,N,07359.31966,W,0.00,,230616,003.1,W*69
1466719212 $GPRMC,220012,A,4041.12047,N,07359.31966,W,0.00,,230616,003.1,W*6B
1466719214 $GPRMC,220013,A,4041.12047,N,07359.31966,W,0.00,,230616,003.1,W*6A
1466719215 $GPRMC,220015,A,4041.12047,N,07359.31966,W,0.00,,230616,003.1,W*6C
1466719216 $GPRMC,220016,A,4041.12047,N,07359.31966,W,0.00,,230616,003.1,W*6F
1466719217 $GPRMC,220017,A,4041.12047,N,07359.31966,W,0.00,,230616,003.1,W*6E
1466719218 $GPRMC,220018,A,4041.12047,N,07359.31966,W,0.00,,230616,003.1,W*61
1466719219 $GPRMC,220019,A,4041.12047,N,07359.31966,W,0.00,,230616,003.1,W*60
1466719221 $GPRMC,220021,A,4041.12047,N,07359.31966,W,0.00,,230616,003.1,W*6B
1466719222 $GPRMC,220022,A,4041.12047,N,07359.31966,W,0.00,,230616,003.1,W*68
1466719223 $GPRMC,220023,A,4041.12047,N,07359.31966,W,0.00,,230616,003.1,W*69
1466719225 $GPRMC,220025,A,4041.12047,N,07359.31966,W,0.00,,230616,003.1,W*6F
1466719226 $GPRMC,220026,A,4041.12047,N,07359.31966,W,0.00,,230616,003.1,W*6C
1466719228 $GPRMC,220028,A,4041.12047,N,07359.31966,W,0.00,,230616,003.1,W*62
1466719229 $GPRMC,220029,A,4041.12047,N,07359.31966,W,0.00,,230616,003.1,W*63
1466719230 $GPRMC,220030,A,4041.12047,N,07359.31966,W,0.00,,230616,003.1,W*6B
1466719232 $GPRMC,220032,A,4041.12047,N,07359.31966,W,0.00,,230616,003.1,W*69
1466719233 $GPRMC,220033,A,4041.12047,N,07359.31966,W,0.00,,230616,003.1,W*68
1466719234 $GPRMC,220034,A,4041.12047,N,07359.31966,W,0.00,,230616,003.1,W*6F
1466719235 $GPRMC,220035,A,4041.12047,N,07359.31966,W,0.00,,230616,003.1,W*6E
1466719237 $GPRMC,220037,A,4041.12047,N,07359.31966,W,0.00,,230616,003.1,W*6C
1466719238 $GPRMC,220038,A,4041.12047,N,07359.31966,W,0.00,,230616,003.1,W*63
1466719240 $GPRMC,220040,A,4041.12047,N,07359.31966,W,0.00,,230616,003.1,W*6C
1466719241 $GPRMC,220041,A,4041.12216,N,07359.31920,W,,,230616,003.1,W*77
1466719242 $GPRMC,220042,A,4041.12215,N,07359.31916,W,,,230616,003.1,W*72
1466719243 $GPRMC,220043,A,4041.12218,N,07359.31905,W,,,230616,003.1,W*7C
1466719245 $GPRMC,220045,A,4041.12236,N,07359.31870,W,,,230616,003.1,W*75
1466719246 $GPRMC,220046,A,4041.12248,N,07359.31750,W,2.29,78.0,230616,003.1,W*74
1466719247 $GPRMC,220047,A,4041.12254,N,07359.31615,W,2.47,88.2,230616,003.1,W*7D
1466719248 $GPRMC,220048,A,4041.12236,N,07359.31514,W,2.29,100.9,230616,003.1,W*46
1466719249 $GPRMC,220049,A,4041.12205,N,07359.31438,W,2.04,112.1,230616,003.1,W*4C
1466719251 $GPRMC,220051,A,4041.12254,N,07359.31002,W,2.90,110.4,230616,003.1,W*46
1466719252 $GPRMC,220052,A,4041.12298,N,07359.30765,W,2.90,107.9,230616,003.1,W*49
1466719253 $GPRMC,220053,A,4041.12425,N,07359.30668,W,2.64,104.4,230616,003.1,W*41
1466719254 $GPRMC,220054,A,4041.12532,N,07359.30640,W,1.17,75.2,230616,003.1,W*7D
1466719256 $GPRMC,220056,A,4041.12723,N,07359.30643,W,1.09,16.2,230616,003.1,W*74
1466719257 $GPRMC,220057,A,4041.12811,N,07359.30644,W,1.09,21.8,230616,003.1,W*72
1466719258 $GPRMC,220058,A,4041.12889,N,07359.30639,W,1.61,20.7,230616,003.1,W*76
1466719260 $GPRMC,220100,A,4041.12911,N,07359.30805,W,0.84,348.8,230616,003.1,W*43
1466719261 $GPRMC,220101,A,4041.12918,N,07359.30901,W,1.17,324.5,230616,003.1,W*42
1466719262 $GPRMC,220102,A,4041.12933,N,07359.30970,W,1.01,332.2,230616,003.1,W*49
1466719264 $GPRMC,220104,A,4041.12911,N,07359.30951,W,0.74,16.9,230616,003.1,W*71
1466719265 $GPRMC,220105,A,4041.12877,N,07359.30932,W,,,230616,003.1,W*79
1466719266 $GPRMC,220106,A,4041.12827,N,07359.30922,W,,,230616,003.1,W*7E
1466719267 $GPRMC,220107,A,4041.12739,N,07359.30928,W,,,230616,003.1,W*75
1466719269 $GPRMC,220109,A,4041.12614,N,07359.30929,W,0.29,154.7,230616,003.1,W*48
1466719270 $GPRMC,220110,A,4041.12565,N,07359.30947,W,,,230616,003.1,W*71
1466719272 $GPRMC,220112,A,4041.12488,N,07359.31099,W,,,230616,003.1,W*7A
1466719273 $GPRMC,220113,A,4041.12422,N,07359.31135,W,,,230616,003.1,W*7C
1466719275 $GPRMC,220115,A,4041.12299,N,07359.31143,W,,,230616,003.1,W*7D
1466719276 $GPRMC,220116,A,4041.12199,N,07359.31154,W,,,230616,003.1,W*7B
1466719278 $GPRMC,220118,A,4041.12069,N,07359.31373,W,,,230616,003.1,W*7C
1466719280 $GPRMC,220119,A,4041.12055,N,07359.31494,W,,,230616,003.1,W*7C
1466719281 $GPRMC,220121,A,4041.12028,N,07359.31695,W,,,230616,003.1,W*7E
1466719282 $GPRMC,220122,A,4041.11994,N,07359.31773,W,,,230616,003.1,W*79
1466719283 $GPRMC,220123,A,4041.11922,N,07359.31802,W,1.22,236.2,230616,003.1,W*48
1466719284 $GPRMC,220124,A,4041.12101,N,07359.30179,W,3.07,78.8,230616,003.1,W*76
1466719285 $GPRMC,220125,A,4041.12128,N,07359.30092,W,2.80,85.8,230616,003.1,W*74
1466719286 $GPRMC,220126,A,4041.12215,N,07359.29971,W,2.99,81.9,230616,003.1,W*7B
1466719288 $GPRMC,220128,A,4041.12225,N,07359.29840,W,2.12,94.2,230616,003.1,W*79
1466719289 $GPRMC,220129,A,4041.12234,N,07359.29797,W,,,230616,003.1,W*73
1466719291 $GPRMC,220130,A,4041.12265,N,07359.29742,W,2.12,84.7,230616,003.1,W*7D
1466719292 $GPRMC,220132,A,4041.12330,N,07359.29599,W,,,230616,003.1,W*70
1466719293 $GPRMC,220133,A,4041.12372,N,07359.29527,W,,,230616,003.1,W*72
1466719294 $GPRMC,220134,A,4041.12705,N,07359.31452,W,,,230616,003.1,W*7B
1466719296 $GPRMC,220136,A,4041.12795,N,07359.31605,W,,,230616,003.1,W*70
1466719297 $GPRMC,220137,A,4041.12934,N,07359.31541,W,2.47,312.9,230616,003.1,W*4F
1466719298 $GPRMC,220138,A,4041.13016,N,07359.31503,W,2.47,316.4,230616,003.1,W*47
1466719299 $GPRMC,220139,A,4041.13000,N,07359.31407,W,0.29,318.5,230616,003.1,W*41
1466719300 $GPRMC,220140,A,4041.12898,N,07359.31494,W,1.57,269.6,230616,003.1,W*41
1466719302 $GPRMC,220142,A,4041.12693,N,07359.31439,W,1.19,218.7,230616,003.1,W*4C
1466719303 $GPRMC,220143,A,4041.12594,N,07359.31424,W,1.19,196.5,230616,003.1,W*42
1466719304 $GPRMC,220144,A,4041.12568,N,07359.31381,W,0.82,147.3,230616,003.1,W*47
1466719305 $GPRMC,220145,A,4041.12531,N,07359.31264,W,0.82,105.1,230616,003.1,W*44
1466719306 $GPRMC,220146,A,4041.12519,N,07359.31277,W,1.19,80.5,230616,003.1,W*74
1466719308 $GPRMC,220148,A,4041.12519,N,07359.31277,W,0.00,110.4,230616,003.1,W*4A
1466719309 $GPRMC,220149,A,4041.12519,N,07359.31277,W,0.00,110.4,230616,003.1,W*4B
1466719310 $GPRMC,220150,A,4041.12519,N,07359.31277,W,0.00,311.8,230616,003.1,W*4C
1466719312 $GPRMC,220152,A,4041.12519,N,07359.31277,W,0.00,354.7,230616,003.1,W*40
1466719313 $GPRMC,220153,A,4041.12519,N,07359.31277,W,0.00,115.3,230616,003.1,W*42
1466719315 $GPRMC,220155,A,4041.12506,N,07359.31252,W,0.00,12.7,230616,003.1,W*7F
1466719316 $GPRMC,220156,A,4041.12554,N,07359.31231,W,0.39,16.9,230616,003.1,W*7E
1466719317 $GPRMC,220157,A,4041.12600,N,07359.31202,W,1.56,27.1,230616,003.1,W*7F
1466719318 $GPRMC,220158,A,4041.12643,N,07359.31165,W,1.56,30.9,230616,003.1,W*7B
1466719320 $GPRMC,220200,A,4041.12702,N,07359.31137,W,0.99,24.6,230616,003.1,W*7E
1466719321 $GPRMC,220201,A,4041.12744,N,07359.31124,W,1.15,13.4,230616,003.1,W*7C
1466719322 $GPRMC,220202,A,4041.12778,N,07359.31132,W,1.15,4.9,230616,003.1,W*4C
1466719323 $GPRMC,220203,A,4041.12817,N,07359.31117,W,1.03,14.8,230616,003.1,W*7B
1466719325 $GPRMC,220205,A,4041.12919,N,07359.31101,W,1.03,346.3,230616,003.1,W*4A
1466719326 $GPRMC,220206,A,4041.12972,N,07359.31086,W,1.21,340.0,230616,003.1,W*4F
1466719327 $GPRMC,220207,A,4041.13031,N,07359.31072,W,1.67,359.3,230616,003.1,W*43
1466719328 $GPRMC,220208,A,4041.13073,N,07359.31051,W,1.21,11.6,230616,003.1,W*73
1466719329 $GPRMC,220209,A,4041.13119,N,07359.31025,W,1.54,21.8,230616,003.1,W*73
1466719330 $GPRMC,220210,A,4041.13181,N,07359.30996,W,2.27,25.3,230616,003.1,W*72
1466719332 $GPRMC,220212,A,4041.13284,N,07359.30909,W,1.75,34.5,230616,003.1,W*72
1466719333 $GPRMC,220213,A,4041.13334,N,07359.30870,W,1.65,33.8,230616,003.1,W*7D
1466719335 $GPRMC,220215,A,4041.13422,N,07359.30809,W,1.59,22.9,230616,003.1,W*7B
1466719336 $GPRMC,220216,A,4041.13457,N,07359.30783,W,1.38,35.2,230616,003.1,W*7D
1466719338 $GPRMC,220218,A,4041.13512,N,07359.30752,W,1.05,46.1,230616,003.1,W*76
1466719339 $GPRMC,220219,A,4041.13549,N,07359.30739,W,1.13,21.8,230616,003.1,W*7B
1466719341 $GPRMC,220221,A,4041.13631,N,07359.30740,W,1.13,13.7,230616,003.1,W*7C
1466719342 $GPRMC,220222,A,4041.13681,N,07359.30723,W,1.26,32.7,230616,003.1,W*74
1466719343 $GPRMC,220223,A,4041.13729,N,07359.30706,W,1.42,35.5,230616,003.1,W*76
1466719345 $GPRMC,220225,A,4041.13826,N,07359.30639,W,1.67,32.7,230616,003.1,W*7F
1466719346 $GPRMC,220226,A,4041.13882,N,07359.30613,W,1.67,23.6,230616,003.1,W*7B
1466719347 $GPRMC,220227,A,4041.13932,N,07359.30606,W,1.67,9.5,230616,003.1,W*4F
1466719348 $GPRMC,220228,A,4041.13976,N,07359.30613,W,1.46,8.1,230616,003.1,W*42
1466719350 $GPRMC,220230,A,4041.14054,N,07359.30614,W,1.13,4.6,230616,003.1,W*49
1466719351 $GPRMC,220231,A,4041.14090,N,07359.30611,W,1.05,6.0,230616,003.1,W*46
1466719353 $GPRMC,220233,A,4041.14146,N,07359.30602,W,0.76,24.3,230616,003.1,W*7A
1466719354 $GPRMC,220234,A,4041.14175,N,07359.30593,W,0.76,20.7,230616,003.1,W*76
1466719355 $GPRMC,220235,A,4041.14204,N,07359.30583,W,0.68,13.4,230616,003.1,W*7F
1466719356 $GPRMC,220236,A,4041.14236,N,07359.30568,W,0.68,29.5,230616,003.1,W*70
1466719357 $GPRMC,220237,A,4041.14271,N,07359.30540,W,1.07,41.1,230616,003.1,W*7A
1466719359 $GPRMC,220239,A,4041.14330,N,07359.30458,W,1.46,49.2,230616,003.1,W*76
1466719360 $GPRMC,220240,A,4041.14361,N,07359.30408,W,1.13,40.8,230616,003.1,W*7A
1466719361 $GPRMC,220241,A,4041.14393,N,07359.30350,W,1.46,24.3,230616,003.1,W*75
1466719362 $GPRMC,220242,A,4041.14429,N,07359.30301,W,1.46,11.2,230616,003.1,W*73
1466719363 $GPRMC,220243,A,4041.14454,N,07359.30255,W,1.46,12.3,230616,003.1,W*7A
1466719365 $GPRMC,220245,A,4041.14504,N,07359.30130,W,1.42,12.0,230616,003.1,W*7F
1466719366 $GPRMC,220246,A,4041.14525,N,07359.30056,W,1.59,12.0,230616,003.1,W*74
1466719367 $GPRMC,220247,A,4041.14542,N,07359.29982,W,1.59,12.3,230616,003.1,W*7F
1466719369 $GPRMC,220249,A,4041.14608,N,07359.29942,W,0.84,12.0,230616,003.1,W*72
1466719370 $GPRMC,220250,A,4041.14654,N,07359.29904,W,0.84,12.3,230616,003.1,W*72
1466719371 $GPRMC,220251,A,4041.14698,N,07359.29857,W,0.93,12.3,230616,003.1,W*72
1466719373 $GPRMC,220252,A,4041.14730,N,07359.29830,W,0.35,12.3,230616,003.1,W*7F
1466719374 $GPRMC,220254,A,4041.14799,N,07359.29800,W,0.72,12.0,230616,003.1,W*79
1466719376 $GPRMC,220255,A,4041.14835,N,07359.29806,W,0.29,12.0,230616,003.1,W*79
1466719377 $GPRMC,220257,A,4041.14871,N,07359.29819,W,0.00,11.6,230616,003.1,W*7B
1466719378 $GPRMC,220258,A,4041.14935,N,07359.29910,W,0.87,11.6,230616,003.1,W*72
1466719380 $GPRMC,220300,A,4041.15021,N,07359.29959,W,1.05,11.2,230616,003.1,W*71
1466719381 $GPRMC,220301,A,4041.15055,N,07359.29979,W,0.33,11.2,230616,003.1,W*75
1466719382 $GPRMC,220302,A,4041.15055,N,07359.29979,W,0.00,11.2,230616,003.1,W*76
1466719384 $GPRMC,220304,A,4041.15055,N,07359.29979,W,0.00,11.2,230616,003.1,W*70
1466719385 $GPRMC,220305,A,4041.15055,N,07359.29979,W,0.00,11.2,230616,003.1,W*71
1466719386 $GPRMC,220306,A,4041.15055,N,07359.29979,W,0.00,11.2,230616,003.1,W*72
1466719387 $GPRMC,220307,A,4041.15055,N,07359.29979,W,0.00,11.2,230616,003.1,W*73
1466719388 $GPRMC,220308,A,4041.15055,N,07359.29979,W,0.00,11.2,230616,003.1,W*7C
1466719390 $GPRMC,220310,A,4041.15328,N,07359.30127,W,0.00,11.2,230616,003.1,W*77
1466719391 $GPRMC,220311,A,4041.15328,N,07359.30127,W,0.00,11.2,230616,003.1,W*76
1466719392 $GPRMC,220312,A,4041.15328,N,07359.30127,W,0.00,11.2,230616,003.1,W*75
1466719393 $GPRMC,220313,A,4041.15342,N,07359.30139,W,0.87,11.2,230616,003.1,W*78
1466719395 $GPRMC,220315,A,4041.15342,N,07359.30139,W,0.00,11.2,230616,003.1,W*71
1466719396 $GPRMC,220316,A,4041.15332,N,07359.30076,W,0.33,11.6,230616,003.1,W*7B
1466719397 $GPRMC,220317,A,4041.15332,N,07359.30076,W,0.00,11.6,230616,003.1,W*7A
1466719399 $GPRMC,220319,A,4041.15362,N,07359.30071,W,0.45,11.6,230616,003.1,W*77
1466719400 $GPRMC,220320,A,4041.15362,N,07359.30071,W,0.00,11.6,230616,003.1,W*7C
1466719401 $GPRMC,220321,A,4041.15377,N,07359.30071,W,0.45,11.6,230616,003.1,W*78
1466719402 $GPRMC,220322,A,4041.15364,N,07359.30085,W,0.54,11.6,230616,003.1,W*72
1466719404 $GPRMC,220324,A,4041.15359,N,07359.30068,W,0.29,11.6,230616,003.1,W*73
1466719405 $GPRMC,220325,A,4041.15359,N,07359.30068,W,0.00,11.6,230616,003.1,W*79
1466719407 $GPRMC,220327,A,4041.15362,N,07359.30014,W,0.39,11.6,230616,003.1,W*72
1466719408 $GPRMC,220328,A,4041.15362,N,07359.30014,W,0.00,11.6,230616,003.1,W*77
1466719409 $GPRMC,220329,A,4041.15387,N,07359.30010,W,0.52,11.6,230616,003.1,W*7E
1466719410 $GPRMC,220330,A,4041.15387,N,07359.30010,W,0.00,11.6,230616,003.1,W*71
1466719412 $GPRMC,220332,A,4041.15417,N,07359.29997,W,0.31,11.6,230616,003.1,W*71
1466719413 $GPRMC,220333,A,4041.15417,N,07359.29997,W,0.00,11.6,230616,003.1,W*72
1466719414 $GPRMC,220334,A,4041.15444,N,07359.29971,W,1.24,72.1,230616,003.1,W*7E
1466719416 $GPRMC,220335,A,4041.15490,N,07359.29926,W,1.24,36.2,230616,003.1,W*77
1466719417 $GPRMC,220336,A,4041.15543,N,07359.29880,W,1.54,38.0,230616,003.1,W*7D
1466719418 $GPRMC,220338,A,4041.15657,N,07359.29817,W,2.08,18.3,230616,003.1,W*70
1466719419 $GPRMC,220339,A,4041.15718,N,07359.29800,W,1.96,8.8,230616,003.1,W*43
1466719420 $GPRMC,220340,A,4041.15774,N,07359.29801,W,1.59,350.5,230616,003.1,W*46
1466719421 $GPRMC,220341,A,4041.15824,N,07359.29829,W,1.52,342.1,230616,003.1,W*4B
1466719422 $GPRMC,220342,A,4041.15876,N,07359.29852,W,1.89,349.1,230616,003.1,W*4E
1466719424 $GPRMC,220344,A,4041.15968,N,07359.29804,W,1.89,42.9,230616,003.1,W*75
1466719425 $GPRMC,220345,A,4041.15972,N,07359.29688,W,2.41,104.1,230616,003.1,W*49
1466719426 $GPRMC,220346,A,4041.15955,N,07359.29599,W,2.41,103.7,230616,003.1,W*4D
1466719427 $GPRMC,220347,A,4041.15929,N,07359.29533,W,1.61,103.7,230616,003.1,W*46
1466719428 $GPRMC,220348,A,4041.15928,N,07359.29520,W,1.61,103.7,230616,003.1,W*4A
1466719429 $GPRMC,220349,A,4041.15924,N,07359.29523,W,0.54,103.7,230616,003.1,W*43
1466719431 $GPRMC,220351,A,4041.15964,N,07359.29428,W,1.11,103.4,230616,003.1,W*47
1466719433 $GPRMC,220352,A,4041.16004,N,07359.29388,W,1.11,103.4,230616,003.1,W*45
1466719434 $GPRMC,220354,A,4041.16055,N,07359.29308,W,0.70,85.4,230616,003.1,W*76
1466719435 $GPRMC,220355,A,4041.16087,N,07359.29252,W,0.84,85.1,230616,003.1,W*78
1466719436 $GPRMC,220356,A,4041.16133,N,07359.29187,W,1.87,85.1,230616,003.1,W*7C
1466719438 $GPRMC,220358,A,4041.16214,N,07359.29069,W,1.87,85.4,230616,003.1,W*70
1466719439 $GPRMC,220359,A,4041.16232,N,07359.29032,W,1.24,45.0,230616,003.1,W*7A
1466719440 $GPRMC,220400,A,4041.16252,N,07359.28996,W,1.22,45.0,230616,003.1,W*77
1466719442 $GPRMC,220401,A,4041.16269,N,07359.28963,W,1.34,45.0,230616,003.1,W*73
1466719443 $GPRMC,220403,A,4041.16316,N,07359.28892,W,1.40,45.4,230616,003.1,W*70
1466719444 $GPRMC,220404,A,4041.16337,N,07359.28892,W,1.30,44.6,230616,003.1,W*70
1466719446 $GPRMC,220406,A,4041.16397,N,07359.28891,W,1.30,44.3,230616,003.1,W*7E
1466719447 $GPRMC,220407,A,4041.16440,N,07359.28902,W,1.30,44.3,230616,003.1,W*79
1466719449 $GPRMC,220408,A,4041.16477,N,07359.28917,W,1.09,44.3,230616,003.1,W*7C
1466719450 $GPRMC,220410,A,4041.16540,N,07359.28915,W,1.09,44.3,230616,003.1,W*72
1466719451 $GPRMC,220411,A,4041.16556,N,07359.28909,W,0.45,44.3,230616,003.1,W*70
1466719453 $GPRMC,220413,A,4041.16585,N,07359.28795,W,1.65,75.6,230616,003.1,W*73
1466719454 $GPRMC,220414,A,4041.16616,N,07359.28707,W,1.65,44.3,230616,003.1,W*71
1466719456 $GPRMC,220416,A,4041.16690,N,07359.28571,W,1.19,28.8,230616,003.1,W*74
1466719458 $GPRMC,220417,A,4041.16736,N,07359.28525,W,1.19,28.8,230616,003.1,W*79
1466719459 $GPRMC,220419,A,4041.16827,N,07359.28460,W,1.21,28.1,230616,003.1,W*7A
1466719460 $GPRMC,220420,A,4041.16881,N,07359.28438,W,1.21,28.1,230616,003.1,W*71
1466719461 $GPRMC,220421,A,4041.16938,N,07359.28421,W,0.91,28.1,230616,003.1,W*71
1466719463 $GPRMC,220423,A,4041.17015,N,07359.28388,W,0.97,28.1,230616,003.1,W*76
1466719464 $GPRMC,220424,A,4041.17043,N,07359.28353,W,1.32,28.5,230616,003.1,W*7E
1466719465 $GPRMC,220425,A,4041.17074,N,07359.28298,W,1.32,28.5,230616,003.1,W*7D
1466719466 $GPRMC,220426,A,4041.17103,N,07359.28246,W,1.36,28.5,230616,003.1,W*78
1466719468 $GPRMC,220428,A,4041.17154,N,07359.28114,W,0.89,28.8,230616,003.1,W*78
1466719469 $GPRMC,220429,A,4041.17154,N,07359.28114,W,0.00,28.8,230616,003.1,W*78
1466719470 $GPRMC,220430,A,4041.17196,N,07359.28028,W,0.89,28.8,230616,003.1,W*71
1466719471 $GPRMC,220431,A,4041.17224,N,07359.28000,W,0.49,28.8,230616,003.1,W*7C
1466719473 $GPRMC,220433,A,4041.17291,N,07359.27978,W,1.05,28.8,230616,003.1,W*70
1466719475 $GPRMC,220434,A,4041.17336,N,07359.27948,W,1.05,28.8,230616,003.1,W*78
1466719476 $GPRMC,220436,A,4041.17415,N,07359.27830,W,1.85,43.2,230616,003.1,W*7D
1466719477 $GPRMC,220437,A,4041.17459,N,07359.27791,W,1.21,28.8,230616,003.1,W*79
1466719478 $GPRMC,220438,A,4041.17498,N,07359.27753,W,1.63,34.1,230616,003.1,W*77
1466719480 $GPRMC,220440,A,4041.17601,N,07359.27672,W,1.63,46.4,230616,003.1,W*78
1466719481 $GPRMC,220441,A,4041.17627,N,07359.27633,W,1.44,28.5,230616,003.1,W*74
1466719482 $GPRMC,220442,A,4041.17661,N,07359.27619,W,1.54,43.6,230616,003.1,W*72
1466719483 $GPRMC,220443,A,4041.17697,N,07359.27616,W,1.54,28.5,230616,003.1,W*7B
1466719485 $GPRMC,220445,A,4041.17760,N,07359.27616,W,0.76,28.8,230616,003.1,W*78
1466719486 $GPRMC,220446,A,4041.17777,N,07359.27614,W,0.60,28.5,230616,003.1,W*75
1466719488 $GPRMC,220448,A,4041.17818,N,07359.27573,W,1.46,45.7,230616,003.1,W*73
1466719489 $GPRMC,220449,A,4041.17852,N,07359.27529,W,1.46,44.6,230616,003.1,W*73
1466719490 $GPRMC,220450,A,4041.17876,N,07359.27479,W,1.46,51.3,230616,003.1,W*78
1466719492 $GPRMC,220452,A,4041.17965,N,07359.27457,W,1.48,46.8,230616,003.1,W*76
1466719493 $GPRMC,220453,A,4041.18008,N,07359.27459,W,1.03,41.5,230616,003.1,W*71
1466719494 $GPRMC,220454,A,4041.18053,N,07359.27452,W,1.03,57.0,230616,003.1,W*71
1466719495 $GPRMC,220455,A,4041.18091,N,07359.27430,W,0.99,57.0,230616,003.1,W*78
1466719497 $GPRMC,220457,A,4041.18166,N,07359.27411,W,0.74,40.1,230616,003.1,W*74
1466719498 $GPRMC,220458,A,4041.18195,N,07359.27389,W,0.74,38.3,230616,003.1,W*7C
1466719499 $GPRMC,220459,A,4041.18241,N,07359.27354,W,0.86,36.2,230616,003.1,W*75
1466719500 $GPRMC,220500,A,4041.18306,N,07359.27329,W,1.65,21.8,230616,003.1,W*70
1466719501 $GPRMC,220501,A,4041.18369,N,07359.27352,W,1.09,15.8,230616,003.1,W*79
1466719503 $GPRMC,220503,A,4041.18484,N,07359.27372,W,1.40,25.0,230616,003.1,W*7B
1466719504 $GPRMC,220504,A,4041.18549,N,07359.27372,W,1.63,8.4,230616,003.1,W*46
1466719506 $GPRMC,220505,A,4041.18604,N,07359.27371,W,1.63,8.4,230616,003.1,W*4E
1466719507 $GPRMC,220506,A,4041.18641,N,07359.27359,W,1.22,8.4,230616,003.1,W*43
1466719508 $GPRMC,220508,A,4041.18701,N,07359.27315,W,1.17,8.8,230616,003.1,W*4A
1466719509 $GPRMC,220509,A,4041.18730,N,07359.27319,W,0.87,8.4,230616,003.1,W*41
1466719510 $GPRMC,220510,A,4041.18769,N,07359.27319,W,1.81,8.4,230616,003.1,W*42
1466719512 $GPRMC,220512,A,4041.18890,N,07359.27315,W,2.00,8.4,230616,003.1,W*4F
1466719513 $GPRMC,220513,A,4041.18928,N,07359.27320,W,2.00,8.4,230616,003.1,W*4A
1466719514 $GPRMC,220514,A,4041.18963,N,07359.27307,W,1.52,8.4,230616,003.1,W*43
1466719516 $GPRMC,220515,A,4041.18996,N,07359.27277,W,1.52,8.4,230616,003.1,W*4E
1466719516 $GPRMC,220516,A,4041.18996,N,07359.27277,W,0.00,8.8,230616,003.1,W*47
1466719518 $GPRMC,220518,A,4041.18996,N,07359.27277,W,0.00,8.8,230616,003.1,W*49
1466719519 $GPRMC,220519,A,4041.18996,N,07359.27277,W,0.00,8.8,230616,003.1,W*48
1466719520 $GPRMC,220520,A,4041.18954,N,07359.27191,W,0.29,8.8,230616,003.1,W*4C
1466719521 $GPRMC,220521,A,4041.18950,N,07359.27181,W,0.29,8.4,230616,003.1,W*44
1466719523 $GPRMC,220522,A,4041.18955,N,07359.27175,W,0.99,8.1,230616,003.1,W*47
1466719524 $GPRMC,220524,A,4041.18961,N,07359.27156,W,1.13,8.1,230616,003.1,W*44
1466719525 $GPRMC,220525,A,4041.18947,N,07359.27111,W,1.90,8.1,230616,003.1,W*49
1466719526 $GPRMC,220526,A,4041.18938,N,07359.27064,W,1.30,8.1,230616,003.1,W*4B
1466719527 $GPRMC,220527,A,4041.18949,N,07359.27036,W,1.30,97.4,230616,003.1,W*78
1466719529 $GPRMC,220529,A,4041.19064,N,07359.27028,W,0.99,8.1,230616,003.1,W*4F
1466719530 $GPRMC,220530,A,4041.19133,N,07359.27038,W,1.11,32.0,230616,003.1,W*7C
1466719532 $GPRMC,220532,A,4041.19291,N,07359.27110,W,0.80,8.1,230616,003.1,W*4F
1466719533 $GPRMC,220533,A,4041.19364,N,07359.27127,W,0.80,59.1,230616,003.1,W*75
1466719534 $GPRMC,220534,A,4041.19364,N,07359.27127,W,0.00,8.4,230616,003.1,W*4B
1466719535 $GPRMC,220535,A,4041.19469,N,07359.27120,W,1.32,73.1,230616,003.1,W*7E
1466719537 $GPRMC,220537,A,4041.19588,N,07359.27084,W,1.32,8.1,230616,003.1,W*41
1466719538 $GPRMC,220538,A,4041.19628,N,07359.27066,W,0.91,56.6,230616,003.1,W*7F
1466719539 $GPRMC,220539,A,4041.19676,N,07359.27041,W,1.05,35.9,230616,003.1,W*76
1466719540 $GPRMC,220540,A,4041.19718,N,07359.27021,W,1.52,23.9,230616,003.1,W*72
1466719541 $GPRMC,220541,A,4041.19772,N,07359.26990,W,1.52,16.5,230616,003.1,W*77
1466719543 $GPRMC,220543,A,4041.19886,N,07359.26941,W,1.19,14.1,230616,003.1,W*74
1466719544 $GPRMC,220544,A,4041.19929,N,07359.26938,W,1.19,27.8,230616,003.1,W*70
1466719545 $GPRMC,220545,A,4041.19986,N,07359.26917,W,1.19,26.4,230616,003.1,W*74
1466719547 $GPRMC,220547,A,4041.20105,N,07359.26846,W,1.87,25.0,230616,003.1,W*7A
1466719548 $GPRMC,220548,A,4041.20171,N,07359.26805,W,1.85,28.8,230616,003.1,W*76
1466719549 $GPRMC,220549,A,4041.20242,N,07359.26755,W,1.92,27.1,230616,003.1,W*7E
1466719551 $GPRMC,220551,A,4041.20375,N,07359.26670,W,1.56,21.1,230616,003.1,W*7A
1466719552 $GPRMC,220552,A,4041.20445,N,07359.26648,W,1.48,18.3,230616,003.1,W*71
1466719553 $GPRMC,220553,A,4041.20516,N,07359.26607,W,1.81,26.7,230616,003.1,W*70
1466719554 $GPRMC,220554,A,4041.20579,N,07359.26544,W,1.59,41.1,230616,003.1,W*78
1466719556 $GPRMC,220555,A,4041.20627,N,07359.26473,W,1.59,45.4,230616,003.1,W*75
1466719557 $GPRMC,220557,A,4041.20727,N,07359.26323,W,1.67,32.3,230616,003.1,W*7E
1466719558 $GPRMC,220558,A,4041.20770,N,07359.26261,W,1.67,29.5,230616,003.1,W*78
1466719560 $GPRMC,220600,A,4041.20878,N,07359.26083,W,1.32,30.2,230616,003.1,W*70
1466719561 $GPRMC,220601,A,4041.20926,N,07359.26018,W,1.65,30.2,230616,003.1,W*7B
1466719562 $GPRMC,220602,A,4041.20982,N,07359.25941,W,2.06,28.8,230616,003.1,W*75
1466719564 $GPRMC,220604,A,4041.21097,N,07359.25772,W,2.00,36.6,230616,003.1,W*76
1466719566 $GPRMC,220605,A,4041.21162,N,07359.25689,W,2.00,37.3,230616,003.1,W*7D
1466719567 $GPRMC,220607,A,4041.21304,N,07359.25460,W,3.38,45.0,230616,003.1,W*74
1466719568 $GPRMC,220608,A,4041.21374,N,07359.25357,W,2.57,42.2,230616,003.1,W*72
1466719569 $GPRMC,220609,A,4041.21426,N,07359.25279,W,2.00,45.0,230616,003.1,W*79
1466719571 $GPRMC,220610,A,4041.21482,N,07359.25207,W,1.63,25.0,230616,003.1,W*76
1466719571 $GPRMC,220611,A,4041.21554,N,07359.25148,W,2.20,24.6,230616,003.1,W*76
1466719573 $GPRMC,220613,A,4041.21693,N,07359.25034,W,1.83,15.5,230616,003.1,W*7D
1466719574 $GPRMC,220614,A,4041.21750,N,07359.24993,W,1.67,16.2,230616,003.1,W*7F
1466719575 $GPRMC,220615,A,4041.21800,N,07359.24954,W,1.36,30.9,230616,003.1,W*74
1466719576 $GPRMC,220616,A,4041.21855,N,07359.24904,W,1.36,41.5,230616,003.1,W*78
1466719578 $GPRMC,220618,A,4041.21976,N,07359.24822,W,1.21,23.6,230616,003.1,W*72
1466719580 $GPRMC,220619,A,4041.22037,N,07359.24782,W,1.46,25.0,230616,003.1,W*78
1466719581 $GPRMC,220621,A,4041.22130,N,07359.24688,W,1.75,39.0,230616,003.1,W*73
1466719583 $GPRMC,220622,A,4041.22162,N,07359.24645,W,1.26,41.8,230616,003.1,W*77
1466719583 $GPRMC,220623,A,4041.22204,N,07359.24592,W,1.24,45.7,230616,003.1,W*75
1466719585 $GPRMC,220625,A,4041.22302,N,07359.24497,W,1.87,32.0,230616,003.1,W*7E
1466719587 $GPRMC,220626,A,4041.22364,N,07359.24464,W,1.87,14.8,230616,003.1,W*7D
1466719588 $GPRMC,220627,A,4041.22411,N,07359.24443,W,1.50,9.1,230616,003.1,W*43
1466719588 $GPRMC,220628,A,4041.22486,N,07359.24409,W,1.50,12.7,230616,003.1,W*70
1466719589 $GPRMC,220629,A,4041.22579,N,07359.24392,W,1.98,17.2,230616,003.1,W*71
1466719591 $GPRMC,220631,A,4041.22695,N,07359.24401,W,1.77,27.8,230616,003.1,W*7C
1466719592 $GPRMC,220632,A,4041.22779,N,07359.24414,W,1.75,27.8,230616,003.1,W*7A
1466719593 $GPRMC,220633,A,4041.22851,N,07359.24427,W,1.75,27.4,230616,003.1,W*72
1466719595 $GPRMC,220634,A,4041.22912,N,07359.24438,W,1.21,27.4,230616,003.1,W*7C
1466719596 $GPRMC,220636,A,4041.23040,N,07359.24417,W,1.57,27.4,230616,003.1,W*7D
1466719597 $GPRMC,220637,A,4041.23097,N,07359.24387,W,1.57,27.4,230616,003.1,W*78
1466719599 $GPRMC,220639,A,4041.23192,N,07359.24316,W,1.05,27.4,230616,003.1,W*7D
1466719600 $GPRMC,220640,A,4041.23239,N,07359.24263,W,2.68,27.4,230616,003.1,W*7A
1466719601 $GPRMC,220641,A,4041.23299,N,07359.24228,W,1.32,27.4,230616,003.1,W*72
1466719603 $GPRMC,220643,A,4041.23403,N,07359.24290,W,0.91,27.1,230616,003.1,W*7B
1466719604 $GPRMC,220644,A,4041.23457,N,07359.24354,W,1.19,27.1,230616,003.1,W*75
1466719606 $GPRMC,220645,A,4041.23497,N,07359.24390,W,0.91,27.1,230616,003.1,W*71
1466719606 $GPRMC,220646,A,4041.23535,N,07359.24408,W,0.97,27.1,230616,003.1,W*7B
1466719608 $GPRMC,220648,A,4041.23594,N,07359.24366,W,1.38,27.1,230616,003.1,W*75
1466719609 $GPRMC,220649,A,4041.23627,N,07359.24343,W,1.38,27.1,230616,003.1,W*78
1466719610 $GPRMC,220650,A,4041.23661,N,07359.24336,W,0.70,27.1,230616,003.1,W*7D
1466719611 $GPRMC,220651,A,4041.23713,N,07359.24323,W,0.70,27.1,230616,003.1,W*7C
1466719612 $GPRMC,220652,A,4041.23761,N,07359.24283,W,1.42,27.1,230616,003.1,W*71
1466719614 $GPRMC,220654,A,4041.23858,N,07359.24155,W,2.25,39.4,230616,003.1,W*72
1466719616 $GPRMC,220655,A,4041.23908,N,07359.24084,W,2.20,35.9,230616,003.1,W*7E
1466719616 $GPRMC,220656,A,4041.23950,N,07359.24043,W,2.00,22.1,230616,003.1,W*77
1466719618 $GPRMC,220658,A,4041.24015,N,07359.23958,W,2.66,36.2,230616,003.1,W*74
1466719619 $GPRMC,220659,A,4041.24042,N,07359.23892,W,2.66,62.9,230616,003.1,W*7A
1466719620 $GPRMC,220700,A,4041.24068,N,07359.23840,W,1.59,52.0,230616,003.1,W*75
1466719621 $GPRMC,220701,A,4041.24111,N,07359.23796,W,1.59,36.9,230616,003.1,W*74
1466719623 $GPRMC,220703,A,4041.24177,N,07359.23734,W,1.26,45.7,230616,003.1,W*7C
1466719625 $GPRMC,220704,A,4041.24209,N,07359.23693,W,1.26,51.3,230616,003.1,W*7C
1466719626 $GPRMC,220706,A,4041.24277,N,07359.23611,W,1.30,48.2,230616,003.1,W*73
1466719628 $GPRMC,220707,A,4041.24319,N,07359.23579,W,1.46,37.6,230616,003.1,W*7B
1466719629 $GPRMC,220709,A,4041.24393,N,07359.23549,W,0.93,27.1,230616,003.1,W*7B
1466719630 $GPRMC,220710,A,4041.24393,N,07359.23549,W,0.00,27.1,230616,003.1,W*79
1466719631 $GPRMC,220711,A,4041.24425,N,07359.23505,W,0.66,27.1,230616,003.1,W*7A
1466719633 $GPRMC,220712,A,4041.24439,N,07359.23427,W,1.83,79.5,230616,003.1,W*70
1466719633 $GPRMC,220713,A,4041.24463,N,07359.23339,W,1.83,67.9,230616,003.1,W*75
1466719635 $GPRMC,220715,A,4041.24535,N,07359.23164,W,1.57,67.1,230616,003.1,W*7A
1466719636 $GPRMC,220716,A,4041.24579,N,07359.23108,W,1.28,69.6,230616,003.1,W*7A
1466719637 $GPRMC,220717,A,4041.24638,N,07359.23059,W,1.85,46.8,230616,003.1,W*7C
1466719638 $GPRMC,220718,A,4041.24707,N,07359.23024,W,1.52,37.6,230616,003.1,W*76
1466719639 $GPRMC,220719,A,4041.24767,N,07359.23012,W,1.52,19.7,230616,003.1,W*79
1466719641 $GPRMC,220721,A,4041.24901,N,07359.23006,W,1.48,355.4,230616,003.1,W*4A
1466719642 $GPRMC,220722,A,4041.24967,N,07359.23020,W,1.48,356.1,230616,003.1,W*4B
1466719644 $GPRMC,220723,A,4041.25031,N,07359.23013,W,1.46,3.9,230616,003.1,W*44
1466719644 $GPRMC,220724,A,4041.25088,N,07359.23004,W,1.21,4.2,230616,003.1,W*4A
1466719646 $GPRMC,220726,A,4041.25206,N,07359.22952,W,1.63,27.4,230616,003.1,W*76
1466719647 $GPRMC,220727,A,4041.25264,N,07359.22908,W,1.77,26.7,230616,003.1,W*7B
1466719649 $GPRMC,220728,A,4041.25299,N,07359.22866,W,1.63,33.0,230616,003.1,W*79
1466719650 $GPRMC,220730,A,4041.25388,N,07359.22798,W,1.34,35.9,230616,003.1,W*72
1466719652 $GPRMC,220731,A,4041.25429,N,07359.22776,W,1.19,31.3,230616,003.1,W*7E
1466719652 $GPRMC,220732,A,4041.25469,N,07359.22744,W,1.52,46.1,230616,003.1,W*75
1466719654 $GPRMC,220734,A,4041.25588,N,07359.22686,W,1.79,6.0,230616,003.1,W*4E
1466719655 $GPRMC,220735,A,4041.25663,N,07359.22678,W,1.79,5.6,230616,003.1,W*4D
1466719656 $GPRMC,220736,A,4041.25745,N,07359.22666,W,2.43,5.6,230616,003.1,W*4E
1466719657 $GPRMC,220737,A,4041.25820,N,07359.22655,W,2.43,5.6,230616,003.1,W*43
1466719659 $GPRMC,220739,A,4041.25929,N,07359.22612,W,1.61,5.6,230616,003.1,W*45
1466719660 $GPRMC,220740,A,4041.25987,N,07359.22582,W,1.61,5.6,230616,003.1,W*45
1466719662 $GPRMC,220742,A,4041.26093,N,07359.22523,W,1.77,5.6,230616,003.1,W*44
1466719664 $GPRMC,220743,A,4041.26130,N,07359.22482,W,1.65,5.6,230616,003.1,W*44
1466719665 $GPRMC,220745,A,4041.26204,N,07359.22429,W,1.56,5.6,230616,003.1,W*47
1466719666 $GPRMC,220746,A,4041.26261,N,07359.22403,W,2.20,31.3,230616,003.1,W*7F
1466719667 $GPRMC,220747,A,4041.26317,N,07359.22397,W,2.20,5.3,230616,003.1,W*43
1466719668 $GPRMC,220748,A,4041.26377,N,07359.22414,W,1.52,5.3,230616,003.1,W*40
1466719670 $GPRMC,220750,A,4041.26466,N,07359.22470,W,0.37,5.3,230616,003.1,W*4E
1466719671 $GPRMC,220751,A,4041.26466,N,07359.22470,W,0.00,5.3,230616,003.1,W*4B
1466719672 $GPRMC,220752,A,4041.26466,N,07359.22470,W,0.00,5.3,230616,003.1,W*48
1466719674 $GPRMC,220754,A,4041.26569,N,07359.22535,W,0.89,5.3,230616,003.1,W*41
1466719675 $GPRMC,220755,A,4041.26585,N,07359.22508,W,1.71,71.0,230616,003.1,W*7A
1466719676 $GPRMC,220756,A,4041.26589,N,07359.22458,W,1.67,88.2,230616,003.1,W*72
1466719678 $GPRMC,220758,A,4041.26673,N,07359.22357,W,1.89,51.3,230616,003.1,W*77
1466719679 $GPRMC,220759,A,4041.26734,N,07359.22341,W,1.01,32.7,230616,003.1,W*72
1466719680 $GPRMC,220800,A,4041.26802,N,07359.22324,W,1.85,49.6,230616,003.1,W*79
1466719682 $GPRMC,220801,A,4041.26868,N,07359.22290,W,1.56,71.4,230616,003.1,W*7D
1466719683 $GPRMC,220803,A,4041.26966,N,07359.22206,W,1.46,71.4,230616,003.1,W*7E
1466719684 $GPRMC,220804,A,4041.27024,N,07359.22167,W,1.54,71.0,230616,003.1,W*74
1466719685 $GPRMC,220805,A,4041.27077,N,07359.22122,W,1.90,70.3,230616,003.1,W*78
1466719687 $GPRMC,220807,A,4041.27183,N,07359.22052,W,1.38,66.1,230616,003.1,W*71
1466719688 $GPRMC,220808,A,4041.27212,N,07359.22046,W,0.33,66.1,230616,003.1,W*7A
1466719689 $GPRMC,220809,A,4041.27216,N,07359.22044,W,0.70,66.1,230616,003.1,W*7A
1466719690 $GPRMC,220810,A,4041.27210,N,07359.22041,W,0.66,66.1,230616,003.1,W*76
1466719691 $GPRMC,220811,A,4041.27223,N,07359.22051,W,0.66,66.1,230616,003.1,W*76
1466719692 $GPRMC,220812,A,4041.27243,N,07359.22047,W,0.56,66.1,230616,003.1,W*77
1466719693 $GPRMC,220813,A,4041.27287,N,07359.22036,W,0.93,66.1,230616,003.1,W*71
1466719695 $GPRMC,220815,A,4041.27357,N,07359.22019,W,0.41,66.1,230616,003.1,W*79
1466719697 $GPRMC,220816,A,4041.27357,N,07359.22019,W,0.00,66.1,230616,003.1,W*7F
1466719698 $GPRMC,220817,A,4041.27357,N,07359.22019,W,0.00,65.7,230616,003.1,W*7B
1466719699 $GPRMC,220819,A,4041.27445,N,07359.21944,W,0.87,65.7,230616,003.1,W*7C
1466719700 $GPRMC,220820,A,4041.27445,N,07359.21944,W,0.00,65.7,230616,003.1,W*79
1466719701 $GPRMC,220821,A,4041.27445,N,07359.21944,W,0.00,65.7,230616,003.1,W*78
1466719702 $GPRMC,220822,A,4041.27445,N,07359.21944,W,0.00,65.7,230616,003.1,W*7B
1466719704 $GPRMC,220824,A,4041.27528,N,07359.21849,W,0.54,65.7,230616,003.1,W*7A
1466719705 $GPRMC,220825,A,4041.27559,N,07359.21831,W,0.54,65.7,230616,003.1,W*72
1466719707 $GPRMC,220827,A,4041.27570,N,07359.21893,W,1.30,262.3,230616,003.1,W*41
1466719708 $GPRMC,220828,A,4041.27570,N,07359.21893,W,0.00,65.7,230616,003.1,W*7D
1466719710 $GPRMC,220830,A,4041.27570,N,07359.21893,W,0.00,65.7,230616,003.1,W*74
1466719711 $GPRMC,220831,A,4041.27570,N,07359.21893,W,0.00,65.7,230616,003.1,W*75
1466719712 $GPRMC,220832,A,4041.27570,N,07359.21893,W,0.00,65.7,230616,003.1,W*76
1466719713 $GPRMC,220833,A,4041.27570,N,07359.21893,W,0.00,65.7,230616,003.1,W*77
1466719715 $GPRMC,220834,A,4041.27570,N,07359.21893,W,0.00,65.7,230616,003.1,W*70
1466719715 $GPRMC,220835,A,4041.27304,N,07359.21979,W,0.00,65.7,230616,003.1,W*71
1466719716 $GPRMC,220836,A,4041.27304,N,07359.21979,W,0.00,65.7,230616,003.1,W*72
1466719718 $GPRMC,220838,A,4041.27304,N,07359.21979,W,0.00,65.7,230616,003.1,W*7C
1466719719 $GPRMC,220839,A,4041.27304,N,07359.21979,W,0.00,65.7,230616,003.1,W*7D
1466719720 $GPRMC,220840,A,4041.27304,N,07359.21979,W,0.00,207.8,230616,003.1,W*4A
1466719721 $GPRMC,220841,A,4041.27213,N,07359.22038,W,0.72,148.0,230616,003.1,W*46
1466719722 $GPRMC,220842,A,4041.27213,N,07359.22038,W,0.00,65.7,230616,003.1,W*79
1466719723 $GPRMC,220843,A,4041.27213,N,07359.22038,W,0.00,65.7,230616,003.1,W*78
1466719724 $GPRMC,220844,A,4041.27213,N,07359.22038,W,0.00,65.7,230616,003.1,W*7F
1466719725 $GPRMC,220845,A,4041.27213,N,07359.22038,W,0.00,65.7,230616,003.1,W*7E
1466719726 $GPRMC,220846,A,4041.27213,N,07359.22038,W,0.00,65.7,230616,003.1,W*7D
1466719728 $GPRMC,220848,A,4041.27213,N,07359.22038,W,0.00,65.7,230616,003.1,W*73
1466719729 $GPRMC,220849,A,4041.27213,N,07359.22038,W,0.00,65.7,230616,003.1,W*72
1466719731 $GPRMC,220850,A,4041.27213,N,07359.22038,W,0.00,65.7,230616,003.1,W*7A
1466719731 $GPRMC,220851,A,4041.27213,N,07359.22038,W,0.00,65.7,230616,003.1,W*7B
1466719733 $GPRMC,220853,A,4041.27213,N,07359.22038,W,0.00,326.6,230616,003.1,W*4C
1466719734 $GPRMC,220854,A,4041.27135,N,07359.22297,W,0.58,346.6,230616,003.1,W*40
1466719735 $GPRMC,220855,A,4041.27154,N,07359.22306,W,0.41,354.4,230616,003.1,W*46
1466719737 $GPRMC,220857,A,4041.27262,N,07359.22357,W,1.56,343.1,230616,003.1,W*42
1466719738 $GPRMC,220858,A,4041.27333,N,07359.22421,W,1.79,329.8,230616,003.1,W*46
1466719739 $GPRMC,220859,A,4041.27386,N,07359.22490,W,1.56,326.6,230616,003.1,W*4F
1466719741 $GPRMC,220901,A,4041.27409,N,07359.22683,W,2.00,290.0,230616,003.1,W*49
1466719742 $GPRMC,220902,A,4041.27419,N,07359.22784,W,1.92,283.7,230616,003.1,W*40
1466719743 $GPRMC,220903,A,4041.27410,N,07359.22908,W,1.92,274.6,230616,003.1,W*4B
1466719745 $GPRMC,220904,A,4041.27420,N,07359.22991,W,1.92,286.2,230616,003.1,W*46
1466719746 $GPRMC,220906,A,4041.27501,N,07359.23114,W,2.43,332.6,230616,003.1,W*47
1466719747 $GPRMC,220907,A,4041.27586,N,07359.23166,W,2.43,341.0,230616,003.1,W*4E
1466719748 $GPRMC,220908,A,4041.27633,N,07359.23242,W,2.43,329.1,230616,003.1,W*46
1466719749 $GPRMC,220909,A,4041.27664,N,07359.23332,W,2.12,316.8,230616,003.1,W*42
1466719750 $GPRMC,220910,A,4041.27684,N,07359.23437,W,2.14,302.3,230616,003.1,W*4E
1466719752 $GPRMC,220912,A,4041.27748,N,07359.23630,W,2.14,316.8,230616,003.1,W*46
1466719754 $GPRMC,220913,A,4041.27776,N,07359.23719,W,2.14,314.6,230616,003.1,W*4C
1466719755 $GPRMC,220914,A,4041.27801,N,07359.23819,W,2.18,307.6,230616,003.1,W*45
1466719756 $GPRMC,220916,A,4041.27863,N,07359.24000,W,2.00,308.3,230616,003.1,W*47
1466719757 $GPRMC,220917,A,4041.27900,N,07359.24092,W,2.00,305.9,230616,003.1,W*4E
1466719758 $GPRMC,220918,A,4041.27923,N,07359.24193,W,1.90,303.4,230616,003.1,W*41
1466719759 $GPRMC,220919,A,4041.27936,N,07359.24293,W,1.77,297.1,230616,003.1,W*47
1466719761 $GPRMC,220921,A,4041.27978,N,07359.24514,W,2.00,297.8,230616,003.1,W*44
1466719762 $GPRMC,220922,A,4041.27997,N,07359.24619,W,1.92,294.3,230616,003.1,W*48
1466719763 $GPRMC,220923,A,4041.28013,N,07359.24725,W,1.90,292.9,230616,003.1,W*43
1466719764 $GPRMC,220924,A,4041.28028,N,07359.24824,W,1.59,282.7,230616,003.1,W*48
1466719765 $GPRMC,220925,A,4041.28058,N,07359.24913,W,1.89,294.3,230616,003.1,W*45
1466719767 $GPRMC,220927,A,4041.28146,N,07359.25099,W,1.89,296.4,230616,003.1,W*46
1466719768 $GPRMC,220928,A,4041.28157,N,07359.25202,W,2.20,281.2,230616,003.1,W*49
1466719769 $GPRMC,220929,A,4041.28123,N,07359.25318,W,2.60,248.9,230616,003.1,W*4B
1466719771 $GPRMC,220930,A,4041.28092,N,07359.25412,W,2.60,248.9,230616,003.1,W*45
1466719772 $GPRMC,220932,A,4041.28058,N,07359.25591,W,1.32,293.9,230616,003.1,W*49
1466719773 $GPRMC,220933,A,4041.28044,N,07359.25685,W,1.32,284.1,230616,003.1,W*4D
1466719774 $GPRMC,220934,A,4041.28015,N,07359.25789,W,1.32,272.1,230616,003.1,W*4A
1466719775 $GPRMC,220935,A,4041.27996,N,07359.25889,W,1.32,281.2,230616,003.1,W*46
1466719777 $GPRMC,220937,A,4041.27984,N,07359.26062,W,1.40,303.0,230616,003.1,W*45
1466719779 $GPRMC,220938,A,4041.28001,N,07359.26149,W,1.79,305.5,230616,003.1,W*40
1466719779 $GPRMC,220939,A,4041.28017,N,07359.26242,W,1.79,309.0,230616,003.1,W*47
1466719781 $GPRMC,220941,A,4041.28089,N,07359.26425,W,2.06,321.0,230616,003.1,W*49
1466719782 $GPRMC,220942,A,4041.28150,N,07359.26499,W,2.06,328.7,230616,003.1,W*46
1466719783 $GPRMC,220943,A,4041.28197,N,07359.26580,W,2.25,301.6,230616,003.1,W*4E
1466719785 $GPRMC,220945,A,4041.28258,N,07359.26750,W,2.16,301.3,230616,003.1,W*42
1466719787 $GPRMC,220946,A,4041.28311,N,07359.26821,W,2.16,351.2,230616,003.1,W*40
1466719788 $GPRMC,220948,A,4041.28407,N,07359.26903,W,2.41,319.2,230616,003.1,W*41
1466719789 $GPRMC,220949,A,4041.28458,N,07359.26932,W,2.41,319.2,230616,003.1,W*48
1466719790 $GPRMC,220950,A,4041.28491,N,07359.26978,W,1.81,319.2,230616,003.1,W*44
1466719791 $GPRMC,220951,A,4041.28518,N,07359.27019,W,1.21,319.2,230616,003.1,W*40
1466719792 $GPRMC,220952,A,4041.28546,N,07359.27079,W,1.92,319.2,230616,003.1,W*46
1466719794 $GPRMC,220954,A,4041.28626,N,07359.27223,W,1.92,319.2,230616,003.1,W*48
1466719795 $GPRMC,220955,A,4041.28670,N,07359.27303,W,2.12,319.2,230616,003.1,W*42
1466719796 $GPRMC,220956,A,4041.28699,N,07359.27396,W,2.16,319.2,230616,003.1,W*4E
1466719797 $GPRMC,220957,A,4041.28730,N,07359.27485,W,2.00,319.2,230616,003.1,W*4F
1466719798 $GPRMC,220958,A,4041.28753,N,07359.27578,W,2.00,301.6,230616,003.1,W*4B
1466719800 $GPRMC,221000,A,4041.28819,N,07359.27737,W,1.98,288.6,230616,003.1,W*44
1466719801 $GPRMC,221001,A,4041.28854,N,07359.27825,W,2.12,289.3,230616,003.1,W*45
1466719802 $GPRMC,221002,A,4041.28890,N,07359.27913,W,2.14,289.3,230616,003.1,W*4C
1466719804 $GPRMC,221003,A,4041.28927,N,07359.27998,W,2.14,289.3,230616,003.1,W*43
1466719805 $GPRMC,221005,A,4041.29002,N,07359.28167,W,2.06,289.7,230616,003.1,W*4A
1466719806 $GPRMC,221006,A,4041.29031,N,07359.28242,W,1.63,289.7,230616,003.1,W*4D
1466719807 $GPRMC,221007,A,4041.29047,N,07359.28300,W,1.63,289.7,230616,003.1,W*4A
1466719809 $GPRMC,221009,A,4041.29069,N,07359.28360,W,0.29,289.3,230616,003.1,W*45
1466719810 $GPRMC,221010,A,4041.29078,N,07359.28376,W,1.07,289.7,230616,003.1,W*43
1466719811 $GPRMC,221011,A,4041.29101,N,07359.28426,W,1.98,302.0,230616,003.1,W*4C
1466719813 $GPRMC,221013,A,4041.29145,N,07359.28552,W,1.61,310.4,230616,003.1,W*4D
1466719814 $GPRMC,221014,A,4041.29176,N,07359.28621,W,1.61,298.1,230616,003.1,W*49
1466719815 $GPRMC,221015,A,4041.29215,N,07359.28693,W,1.75,298.8,230616,003.1,W*4B
1466719816 $GPRMC,221016,A,4041.29248,N,07359.28760,W,1.46,298.8,230616,003.1,W*4D
1466719818 $GPRMC,221018,A,4041.29308,N,07359.28919,W,1.90,298.5,230616,003.1,W*40
1466719820 $GPRMC,221019,A,4041.29334,N,07359.29001,W,1.90,298.5,230616,003.1,W*4F
1466719821 $GPRMC,221021,A,4041.29375,N,07359.29151,W,1.57,298.5,230616,003.1,W*4E
1466719822 $GPRMC,221022,A,4041.29395,N,07359.29224,W,1.59,298.5,230616,003.1,W*4C
1466719824 $GPRMC,221024,A,4041.29433,N,07359.29374,W,1.59,298.5,230616,003.1,W*45
1466719825 $GPRMC,221025,A,4041.29455,N,07359.29438,W,1.42,298.1,230616,003.1,W*45
1466719827 $GPRMC,221026,A,4041.29475,N,07359.29507,W,1.52,298.5,230616,003.1,W*4C
1466719827 $GPRMC,221027,A,4041.29497,N,07359.29589,W,2.02,289.7,230616,003.1,W*43
1466719829 $GPRMC,221029,A,4041.29553,N,07359.29769,W,2.02,306.2,230616,003.1,W*4B
1466719830 $GPRMC,221030,A,4041.29577,N,07359.29847,W,1.98,298.1,230616,003.1,W*43
1466719831 $GPRMC,221031,A,4041.29591,N,07359.29928,W,2.02,299.5,230616,003.1,W*47
1466719832 $GPRMC,221032,A,4041.29602,N,07359.30025,W,2.45,290.4,230616,003.1,W*4A
1466719834 $GPRMC,221034,A,4041.29636,N,07359.30207,W,2.22,303.0,230616,003.1,W*47
1466719835 $GPRMC,221035,A,4041.29652,N,07359.30290,W,2.18,308.0,230616,003.1,W*48
1466719836 $GPRMC,221036,A,4041.29668,N,07359.30386,W,2.18,302.7,230616,003.1,W*49
1466719837 $GPRMC,221037,A,4041.29686,N,07359.30476,W,1.77,300.9,230616,003.1,W*46
1466719839 $GPRMC,221039,A,4041.29730,N,07359.30654,W,1.81,295.0,230616,003.1,W*4B
1466719840 $GPRMC,221040,A,4041.29736,N,07359.30764,W,2.25,285.8,230616,003.1,W*45
1466719841 $GPRMC,221041,A,4041.29729,N,07359.30872,W,2.25,276.0,230616,003.1,W*46
1466719843 $GPRMC,221042,A,4041.29726,N,07359.30965,W,1.71,277.0,230616,003.1,W*4E
1466719844 $GPRMC,221044,A,4041.29751,N,07359.31136,W,1.69,291.8,230616,003.1,W*4E
1466719845 $GPRMC,221045,A,4041.29773,N,07359.31242,W,2.16,289.0,230616,003.1,W*45
1466719846 $GPRMC,221046,A,4041.29786,N,07359.31363,W,2.33,285.5,230616,003.1,W*40
1466719847 $GPRMC,221047,A,4041.29796,N,07359.31473,W,2.16,283.4,230616,003.1,W*46
1466719849 $GPRMC,221049,A,4041.29823,N,07359.31676,W,1.92,289.0,230616,003.1,W*4F
1466719850 $GPRMC,221050,A,4041.29832,N,07359.31782,W,2.04,289.0,230616,003.1,W*41
1466719851 $GPRMC,221051,A,4041.29822,N,07359.31878,W,2.04,288.3,230616,003.1,W*49
1466719852 $GPRMC,221052,A,4041.29828,N,07359.31962,W,1.77,288.6,230616,003.1,W*48
1466719853 $GPRMC,221053,A,4041.29835,N,07359.32050,W,1.77,288.6,230616,003.1,W*4E
1466719854 $GPRMC,221054,A,4041.29855,N,07359.32140,W,1.81,288.6,230616,003.1,W*46
1466719855 $GPRMC,221055,A,4041.29858,N,07359.32233,W,1.83,288.6,230616,003.1,W*4F
1466719857 $GPRMC,221057,A,4041.29850,N,07359.32411,W,1.83,288.6,230616,003.1,W*43
1466719858 $GPRMC,221058,A,4041.29851,N,07359.32517,W,1.87,288.6,230616,003.1,W*4E
1466719859 $GPRMC,221059,A,4041.29851,N,07359.32638,W,2.27,282.7,230616,003.1,W*43
1466719861 $GPRMC,221101,A,4041.29868,N,07359.32854,W,2.27,290.7,230616,003.1,W*42
1466719862 $GPRMC,221102,A,4041.29926,N,07359.32903,W,2.25,304.8,230616,003.1,W*48
1466719863 $GPRMC,221103,A,4041.30006,N,07359.32938,W,2.27,316.1,230616,003.1,W*4A
1466719865 $GPRMC,221105,A,4041.30134,N,07359.33015,W,2.12,316.4,230616,003.1,W*48
1466719866 $GPRMC,221106,A,4041.30162,N,07359.33091,W,2.12,294.3,230616,003.1,W*48
1466719867 $GPRMC,221107,A,4041.30179,N,07359.33167,W,1.67,276.3,230616,003.1,W*46
1466719868 $GPRMC,221108,A,4041.30181,N,07359.33266,W,2.12,279.1,230616,003.1,W*40
1466719869 $GPRMC,221109,A,4041.30254,N,07359.33355,W,2.57,303.4,230616,003.1,W*43
1466719870 $GPRMC,221110,A,4041.30322,N,07359.33439,W,2.57,311.5,230616,003.1,W*44
1466719871 $GPRMC,221111,A,4041.30448,N,07359.33438,W,2.31,323.8,230616,003.1,W*43
1466719873 $GPRMC,221113,A,4041.30599,N,07359.33509,W,1.71,316.4,230616,003.1,W*42
1466719874 $GPRMC,221114,A,4041.30663,N,07359.33540,W,1.44,306.6,230616,003.1,W*4B
1466719875 $GPRMC,221115,A,4041.30726,N,07359.33559,W,1.44,315.0,230616,003.1,W*46
1466719876 $GPRMC,221116,A,4041.30787,N,07359.33596,W,1.44,324.1,230616,003.1,W*4E
1466719878 $GPRMC,221118,A,4041.30896,N,07359.33688,W,1.54,329.4,230616,003.1,W*4A
1466719879 $GPRMC,221119,A,4041.30934,N,07359.33743,W,1.61,325.5,230616,003.1,W*4F
1466719881 $GPRMC,221121,A,4041.30960,N,07359.33883,W,1.63,290.7,230616,003.1,W*49
1466719883 $GPRMC,221122,A,4041.30986,N,07359.33925,W,1.63,285.8,230616,003.1,W*44
1466719884 $GPRMC,221124,A,4041.31050,N,07359.34070,W,2.18,318.5,230616,003.1,W*48
1466719885 $GPRMC,221125,A,4041.31095,N,07359.34139,W,2.18,321.3,230616,003.1,W*40
1466719886 $GPRMC,221126,A,4041.31130,N,07359.34223,W,2.02,322.4,230616,003.1,W*4A
1466719887 $GPRMC,221127,A,4041.31175,N,07359.34304,W,2.59,324.8,230616,003.1,W*4A
1466719888 $GPRMC,221128,A,4041.31233,N,07359.34383,W,2.60,329.4,230616,003.1,W*40
1466719890 $GPRMC,221130,A,4041.31379,N,07359.34504,W,2.60,338.2,230616,003.1,W*49
1466719891 $GPRMC,221131,A,4041.31414,N,07359.34566,W,2.47,338.6,230616,003.1,W*41
1466719892 $GPRMC,221132,A,4041.31410,N,07359.34634,W,0.84,323.1,230616,003.1,W*42
1466719893 $GPRMC,221133,A,4041.31421,N,07359.34713,W,2.04,327.3,230616,003.1,W*49
1466719895 $GPRMC,221134,A,4041.31433,N,07359.34779,W,0.84,317.1,230616,003.1,W*4A
1466719895 $GPRMC,221135,A,4041.31443,N,07359.34809,W,0.47,325.2,230616,003.1,W*49
1466719897 $GPRMC,221137,A,4041.31429,N,07359.34883,W,0.51,249.6,230616,003.1,W*4D
1466719898 $GPRMC,221138,A,4041.31410,N,07359.34935,W,0.89,232.7,230616,003.1,W*4C
1466719899 $GPRMC,221139,A,4041.31410,N,07359.34935,W,0.00,223.2,230616,003.1,W*49
1466719900 $GPRMC,221140,A,4041.31410,N,07359.34935,W,0.00,227.5,230616,003.1,W*44
1466719902 $GPRMC,221142,A,4041.31410,N,07359.34935,W,0.00,24.6,230616,003.1,W*74
1466719903 $GPRMC,221143,A,4041.31410,N,07359.34935,W,0.00,24.6,230616,003.1,W*75
1466719905 $GPRMC,221145,A,4041.31410,N,07359.34935,W,0.00,24.6,230616,003.1,W*73
1466719907 $GPRMC,221146,A,4041.31410,N,07359.34935,W,0.00,24.6,230616,003.1,W*70
1466719908 $GPRMC,221148,A,4041.31410,N,07359.34935,W,0.00,24.6,230616,003.1,W*7E
1466719909 $GPRMC,221149,A,4041.31410,N,07359.34935,W,0.00,65.0,230616,003.1,W*7C
1466719911 $GPRMC,221151,A,4041.31410,N,07359.34935,W,0.00,77.3,230616,003.1,W*75
1466719912 $GPRMC,221152,A,4041.31410,N,07359.34935,W,0.00,26.0,230616,003.1,W*71
1466719913 $GPRMC,221153,A,4041.31562,N,07359.34818,W,0.52,359.3,230616,003.1,W*45
1466719915 $GPRMC,221155,A,4041.31617,N,07359.34902,W,1.24,309.7,230616,003.1,W*49
1466719916 $GPRMC,221156,A,4041.31704,N,07359.34985,W,1.96,319.6,230616,003.1,W*4F
1466719917 $GPRMC,221157,A,4041.31819,N,07359.35077,W,3.95,325.5,230616,003.1,W*45
1466719919 $GPRMC,221158,A,4041.31942,N,07359.35149,W,4.10,328.7,230616,003.1,W*4C
1466719920 $GPRMC,221159,A,4041.32028,N,07359.35210,W,3.95,299.9,230616,003.1,W*4B
1466719921 $GPRMC,221201,A,4041.32198,N,07359.35262,W,2.57,304.8,230616,003.1,W*41
1466719922 $GPRMC,221202,A,4041.32249,N,07359.35284,W,1.50,304.8,230616,003.1,W*41
1466719923 $GPRMC,221203,A,4041.32292,N,07359.35310,W,1.50,304.8,230616,003.1,W*4A
1466719924 $GPRMC,221204,A,4041.32332,N,07359.35345,W,1.50,304.8,230616,003.1,W*46
1466719925 $GPRMC,221205,A,4041.32383,N,07359.35392,W,2.02,304.8,230616,003.1,W*43
1466719927 $GPRMC,221207,A,4041.32497,N,07359.35505,W,2.49,290.7,230616,003.1,W*47
1466719928 $GPRMC,221208,A,4041.32559,N,07359.35554,W,2.47,290.7,230616,003.1,W*41
1466719929 $GPRMC,221209,A,4041.32624,N,07359.35621,W,2.47,290.7,230616,003.1,W*48
1466719931 $GPRMC,221211,A,4041.32752,N,07359.35814,W,2.55,290.7,230616,003.1,W*4A
1466719932 $GPRMC,221212,A,4041.32807,N,07359.35905,W,2.55,291.1,230616,003.1,W*40
1466719933 $GPRMC,221213,A,4041.32862,N,07359.35979,W,2.41,291.1,230616,003.1,W*4C
1466719935 $GPRMC,221215,A,4041.32959,N,07359.36100,W,1.96,291.1,230616,003.1,W*4F
1466719936 $GPRMC,221216,A,4041.33010,N,07359.36157,W,1.89,291.1,230616,003.1,W*45
1466719938 $GPRMC,221218,A,4041.33062,N,07359.36336,W,2.33,285.8,230616,003.1,W*45
1466719939 $GPRMC,221219,A,4041.33079,N,07359.36449,W,2.84,280.9,230616,003.1,W*49
1466719940 $GPRMC,221220,A,4041.33096,N,07359.36544,W,2.84,280.9,230616,003.1,W*4E
1466719941 $GPRMC,221221,A,4041.33113,N,07359.36621,W,2.04,289.0,230616,003.1,W*4B
1466719943 $GPRMC,221222,A,4041.33148,N,07359.36722,W,3.42,291.8,230616,003.1,W*46
1466719944 $GPRMC,221224,A,4041.33225,N,07359.36917,W,2.64,294.3,230616,003.1,W*4B
1466719945 $GPRMC,221225,A,4041.33253,N,07359.36982,W,2.29,285.8,230616,003.1,W*45
1466719947 $GPRMC,221227,A,4041.33297,N,07359.37014,W,0.33,291.1,230616,003.1,W*4D
1466719948 $GPRMC,221228,A,4041.33312,N,07359.36991,W,0.62,291.1,230616,003.1,W*4F
1466719949 $GPRMC,221229,A,4041.33325,N,07359.36958,W,0.62,34.1,230616,003.1,W*72
1466719950 $GPRMC,221230,A,4041.33339,N,07359.36922,W,0.62,291.1,230616,003.1,W*47
1466719951 $GPRMC,221231,A,4041.33353,N,07359.36894,W,0.45,291.1,230616,003.1,W*43
1466719953 $GPRMC,221233,A,4041.33353,N,07359.36894,W,0.00,291.1,230616,003.1,W*40
1466719954 $GPRMC,221234,A,4041.33353,N,07359.36894,W,0.00,291.1,230616,003.1,W*47
1466719956 $GPRMC,221236,A,4041.33353,N,07359.36894,W,0.00,291.1,230616,003.1,W*45
1466719957 $GPRMC,221237,A,4041.33373,N,07359.36905,W,0.80,343.8,230616,003.1,W*40
1466719958 $GPRMC,221238,A,4041.33389,N,07359.36929,W,0.80,338.2,230616,003.1,W*42
1466719959 $GPRMC,221239,A,4041.33409,N,07359.36952,W,0.80,330.5,230616,003.1,W*4F
1466719960 $GPRMC,221240,A,4041.33418,N,07359.36976,W,1.11,321.3,230616,003.1,W*48
1466719962 $GPRMC,221242,A,4041.33454,N,07359.37084,W,1.59,306.6,230616,003.1,W*4B
1466719963 $GPRMC,221243,A,4041.33469,N,07359.37157,W,1.83,304.5,230616,003.1,W*4D
1466719964 $GPRMC,221244,A,4041.33472,N,07359.37229,W,1.83,299.5,230616,003.1,W*4F
1466719965 $GPRMC,221245,A,4041.33469,N,07359.37297,W,1.50,294.6,230616,003.1,W*41
1466719966 $GPRMC,221246,A,4041.33477,N,07359.37377,W,2.06,296.4,230616,003.1,W*42
1466719968 $GPRMC,221248,A,4041.33519,N,07359.37549,W,2.10,298.8,230616,003.1,W*4B
1466719969 $GPRMC,221249,A,4041.33549,N,07359.37630,W,2.16,319.9,230616,003.1,W*4D
1466719970 $GPRMC,221250,A,4041.33583,N,07359.37703,W,2.08,319.2,230616,003.1,W*46
1466719971 $GPRMC,221251,A,4041.33607,N,07359.37782,W,2.29,318.9,230616,003.1,W*48
1466719972 $GPRMC,221252,A,4041.33632,N,07359.37865,W,2.29,318.9,230616,003.1,W*4B
1466719973 $GPRMC,221253,A,4041.33670,N,07359.37943,W,2.29,319.2,230616,003.1,W*43
1466719975 $GPRMC,221255,A,4041.33739,N,07359.38061,W,1.65,319.2,230616,003.1,W*44
1466719976 $GPRMC,221256,A,4041.33766,N,07359.38134,W,2.49,297.8,230616,003.1,W*4C
1466719977 $GPRMC,221257,A,4041.33789,N,07359.38195,W,1.65,293.2,230616,003.1,W*44
1466719979 $GPRMC,221259,A,4041.33807,N,07359.38267,W,0.97,319.2,230616,003.1,W*42
1466719980 $GPRMC,221300,A,4041.33832,N,07359.38310,W,1.63,319.6,230616,003.1,W*46
1466719981 $GPRMC,221301,A,4041.33862,N,07359.38362,W,1.63,319.6,230616,003.1,W*47
1466719982 $GPRMC,221302,A,4041.33895,N,07359.38412,W,1.63,319.6,230616,003.1,W*4C
1466719984 $GPRMC,221303,A,4041.33914,N,07359.38466,W,1.63,297.1,230616,003.1,W*46
1466719985 $GPRMC,221305,A,4041.33926,N,07359.38598,W,1.07,278.8,230616,003.1,W*4B
1466719986 $GPRMC,221306,A,4041.33917,N,07359.38674,W,1.50,265.8,230616,003.1,W*45
1466719988 $GPRMC,221308,A,4041.34005,N,07359.38779,W,1.77,338.6,230616,003.1,W*48
1466719989 $GPRMC,221309,A,4041.34069,N,07359.38813,W,1.94,351.9,230616,003.1,W*4D
1466719990 $GPRMC,221310,A,4041.34118,N,07359.38858,W,1.61,333.6,230616,003.1,W*4C
1466719992 $GPRMC,221312,A,4041.34157,N,07359.39007,W,1.61,290.7,230616,003.1,W*4F
1466719993 $GPRMC,221313,A,4041.34134,N,07359.39123,W,1.61,258.4,230616,003.1,W*4B
1466719994 $GPRMC,221314,A,4041.34093,N,07359.39243,W,2.57,242.2,230616,003.1,W*4E
1466719995 $GPRMC,221315,A,4041.34075,N,07359.39338,W,2.57,245.7,230616,003.1,W*48
1466719997 $GPRMC,221316,A,4041.34073,N,07359.39432,W,2.37,267.5,230616,003.1,W*44
1466719998 $GPRMC,221318,A,4041.34087,N,07359.39622,W,2.20,277.7,230616,003.1,W*47
1466719999 $GPRMC,221319,A,4041.34080,N,07359.39727,W,2.66,267.9,230616,003.1,W*48
1466720000 $GPRMC,221320,A,4041.34067,N,07359.39864,W,3.17,261.9,230616,003.1,W*42
1466720001 $GPRMC,221321,A,4041.34071,N,07359.39969,W,2.66,270.7,230616,003.1,W*41
1466720002 $GPRMC,221322,A,4041.34085,N,07359.40033,W,1.61,282.7,230616,003.1,W*48
1466720004 $GPRMC,221324,A,4041.34183,N,07359.40119,W,1.46,316.4,230616,003.1,W*4A
1466720005 $GPRMC,221325,A,4041.34238,N,07359.40158,W,1.46,318.9,230616,003.1,W*4E
1466720007 $GPRMC,221327,A,4041.34347,N,07359.40293,W,1.79,304.5,230616,003.1,W*4C
1466720008 $GPRMC,221328,A,4041.34366,N,07359.40340,W,0.39,297.1,230616,003.1,W*45
1466720009 $GPRMC,221329,A,4041.34382,N,07359.40388,W,1.34,300.2,230616,003.1,W*4A
1466720010 $GPRMC,221330,A,4041.34401,N,07359.40407,W,0.31,293.2,230616,003.1,W*41
1466720011 $GPRMC,221331,A,4041.34401,N,07359.40407,W,0.00,308.0,230616,003.1,W*43
1466720013 $GPRMC,221333,A,4041.34401,N,07359.40407,W,0.00,98.8,230616,003.1,W*73
1466720014 $GPRMC,221334,A,4041.34401,N,07359.40407,W,0.00,14.4,230616,003.1,W*7C
1466720016 $GPRMC,221336,A,4041.34401,N,07359.40407,W,0.00,21.1,230616,003.1,W*7D
1466720017 $GPRMC,221337,A,4041.34401,N,07359.40407,W,0.00,23.6,230616,003.1,W*79
1466720019 $GPRMC,221339,A,4041.34419,N,07359.40161,W,0.00,228.2,230616,003.1,W*46
1466720020 $GPRMC,221340,A,4041.34404,N,07359.40157,W,0.33,210.2,230616,003.1,W*4A
1466720022 $GPRMC,221342,A,4041.34404,N,07359.40157,W,0.00,187.4,230616,003.1,W*43
1466720023 $GPRMC,221343,A,4041.34374,N,07359.40178,W,0.39,332.6,230616,003.1,W*4B
1466720024 $GPRMC,221344,A,4041.34374,N,07359.40178,W,0.00,330.1,230616,003.1,W*43
1466720025 $GPRMC,221345,A,4041.34374,N,07359.40178,W,0.00,298.8,230616,003.1,W*48
1466720027 $GPRMC,221346,A,4041.34374,N,07359.40178,W,0.00,215.5,230616,003.1,W*43
1466720028 $GPRMC,221348,A,4041.34374,N,07359.40178,W,0.00,215.5,230616,003.1,W*4D
1466720029 $GPRMC,221349,A,4041.34326,N,07359.40231,W,0.39,261.6,230616,003.1,W*4F
1466720030 $GPRMC,221350,A,4041.34337,N,07359.40263,W,0.39,292.1,230616,003.1,W*4B
1466720031 $GPRMC,221351,A,4041.34346,N,07359.40304,W,1.17,298.1,230616,003.1,W*4B
1466720032 $GPRMC,221352,A,4041.34354,N,07359.40345,W,1.01,299.9,230616,003.1,W*40
1466720034 $GPRMC,221354,A,4041.34354,N,07359.40380,W,0.60,270.7,230616,003.1,W*40
1466720035 $GPRMC,221355,A,4041.34343,N,07359.40403,W,0.60,261.6,230616,003.1,W*4A
1466720036 $GPRMC,221356,A,4041.34346,N,07359.40435,W,0.80,286.9,230616,003.1,W*41
1466720037 $GPRMC,221357,A,4041.34352,N,07359.40490,W,1.67,284.8,230616,003.1,W*41
1466720038 $GPRMC,221358,A,4041.34362,N,07359.40550,W,1.67,283.7,230616,003.1,W*48
1466720040 $GPRMC,221400,A,4041.34378,N,07359.40726,W,1.89,283.4,230616,003.1,W*49
1466720041 $GPRMC,221401,A,4041.34388,N,07359.40788,W,1.89,288.3,230616,003.1,W*4F
1466720042 $GPRMC,221402,A,4041.34383,N,07359.40840,W,1.07,284.1,230616,003.1,W*44
1466720043 $GPRMC,221403,A,4041.34370,N,07359.40897,W,1.63,279.1,230616,003.1,W*43
1466720044 $GPRMC,221404,A,4041.34354,N,07359.40984,W,1.63,275.6,230616,003.1,W*4A
1466720046 $GPRMC,221406,A,4041.34333,N,07359.41130,W,1.71,280.9,230616,003.1,W*49
1466720047 $GPRMC,221407,A,4041.34328,N,07359.41194,W,1.87,280.2,230616,003.1,W*4E
1466720048 $GPRMC,221408,A,4041.34336,N,07359.41262,W,2.08,291.4,230616,003.1,W*46
