1465833088 $GPRMC,155127,A,4045.36866,N,07402.20146,W,,,130616,003.1,W*7A
1465833090 $GPRMC,155127,A,4045.36866,N,07402.20146,W,,,130616,003.1,W*7A
1465833092 $GPRMC,155132,A,4045.36764,N,07402.18863,W,1.13,,130616,003.1,W*6B
1465833093 $GPRMC,155133,A,4045.37293,N,07402.18086,W,0.00,,130616,003.1,W*66
1465833094 $GPRMC,155134,A,4045.36952,N,07402.17842,W,0.00,,130616,003.1,W*69
1465833096 $GPRMC,155136,A,4045.36952,N,07402.17842,W,0.00,,130616,003.1,W*6B
1465833098 $GPRMC,155138,A,4045.36952,N,07402.17842,W,0.00,,130616,003.1,W*65
1465833100 $GPRMC,155140,A,4045.36952,N,07402.17842,W,0.00,,130616,003.1,W*6A
1465833101 $GPRMC,155141,A,4045.36952,N,07402.17842,W,0.00,220.8,130616,003.1,W*4D
1465833103 $GPRMC,155143,A,4045.36952,N,07402.17842,W,0.00,220.8,130616,003.1,W*4F
1465833104 $GPRMC,155144,A,4045.36952,N,07402.17842,W,0.00,210.2,130616,003.1,W*41
1465833105 $GPRMC,155145,A,4045.36806,N,07402.17996,W,1.03,185.6,130616,003.1,W*41
1465833106 $GPRMC,155146,A,4045.36790,N,07402.18025,W,0.49,200.7,130616,003.1,W*4C
1465833107 $GPRMC,155147,A,4045.36790,N,07402.18025,W,0.00,231.7,130616,003.1,W*42
1465833108 $GPRMC,155148,A,4045.36790,N,07402.18025,W,0.00,231.7,130616,003.1,W*4D
1465833109 $GPRMC,155149,A,4045.36790,N,07402.18025,W,0.00,231.7,130616,003.1,W*4C
1465833111 $GPRMC,155151,A,4045.36790,N,07402.18025,W,0.00,231.7,130616,003.1,W*45
1465833112 $GPRMC,155152,A,4045.36790,N,07402.18025,W,0.00,231.7,130616,003.1,W*46
1465833114 $GPRMC,155154,A,4045.36790,N,07402.18025,W,0.00,231.7,130616,003.1,W*40
1465833115 $GPRMC,155155,A,4045.36790,N,07402.18025,W,0.00,231.7,130616,003.1,W*41
1465833117 $GPRMC,155157,A,4045.36790,N,07402.18025,W,0.00,231.7,130616,003.1,W*43
1465833118 $GPRMC,155158,A,4045.36790,N,07402.18025,W,0.00,207.8,130616,003.1,W*46
1465833119 $GPRMC,155159,A,4045.36749,N,07402.18262,W,1.17,215.2,130616,003.1,W*4C
1465833120 $GPRMC,155200,A,4045.36687,N,07402.18327,W,2.41,214.5,130616,003.1,W*46
1465833122 $GPRMC,155202,A,4045.36570,N,07402.18387,W,1.83,207.1,130616,003.1,W*4E
1465833123 $GPRMC,155203,A,4045.36570,N,07402.18387,W,0.00,207.1,130616,003.1,W*45
1465833125 $GPRMC,155205,A,4045.36570,N,07402.18387,W,0.00,207.1,130616,003.1,W*43
1465833126 $GPRMC,155206,A,4045.36570,N,07402.18387,W,0.00,207.1,130616,003.1,W*40
1465833128 $GPRMC,155208,A,4045.36570,N,07402.18387,W,0.00,207.1,130616,003.1,W*4E
1465833129 $GPRMC,155209,A,4045.36450,N,07402.18400,W,2.24,207.4,130616,003.1,W*45
1465833130 $GPRMC,155210,A,4045.36387,N,07402.18441,W,2.43,207.4,130616,003.1,W*44
1465833131 $GPRMC,155211,A,4045.36321,N,07402.18476,W,2.43,207.4,130616,003.1,W*4D
1465833133 $GPRMC,155213,A,4045.36222,N,07402.18522,W,2.08,207.1,130616,003.1,W*47
1465833134 $GPRMC,155214,A,4045.36155,N,07402.18558,W,2.37,206.0,130616,003.1,W*42
1465833135 $GPRMC,155215,A,4045.36049,N,07402.18618,W,3.38,197.9,130616,003.1,W*44
1465833137 $GPRMC,155217,A,4045.35839,N,07402.18682,W,3.29,193.0,130616,003.1,W*44
1465833138 $GPRMC,155218,A,4045.35743,N,07402.18716,W,3.17,196.5,130616,003.1,W*48
1465833139 $GPRMC,155219,A,4045.35647,N,07402.18758,W,3.17,199.0,130616,003.1,W*4C
1465833140 $GPRMC,155220,A,4045.35558,N,07402.18809,W,2.59,203.6,130616,003.1,W*4D
1465833141 $GPRMC,155221,A,4045.35486,N,07402.18853,W,2.35,203.6,130616,003.1,W*4B
1465833143 $GPRMC,155223,A,4045.35318,N,07402.18976,W,1.94,205.7,130616,003.1,W*40
1465833144 $GPRMC,155224,A,4045.35238,N,07402.19050,W,2.68,207.8,130616,003.1,W*45
1465833145 $GPRMC,155225,A,4045.35167,N,07402.19115,W,2.12,207.4,130616,003.1,W*4C
1465833146 $GPRMC,155226,A,4045.35068,N,07402.19192,W,2.68,207.4,130616,003.1,W*43
1465833147 $GPRMC,155227,A,4045.34964,N,07402.19266,W,2.86,207.4,130616,003.1,W*4E
1465833148 $GPRMC,155228,A,4045.34856,N,07402.19326,W,2.95,207.4,130616,003.1,W*46
1465833149 $GPRMC,155229,A,4045.34736,N,07402.19382,W,3.83,194.4,130616,003.1,W*4F
1465833151 $GPRMC,155231,A,4045.34535,N,07402.19474,W,3.07,204.3,130616,003.1,W*48
1465833152 $GPRMC,155232,A,4045.34461,N,07402.19517,W,2.51,203.9,130616,003.1,W*40
1465833153 $GPRMC,155233,A,4045.34389,N,07402.19567,W,2.24,203.9,130616,003.1,W*45
1465833154 $GPRMC,155234,A,4045.34312,N,07402.19611,W,2.64,203.9,130616,003.1,W*46
1465833155 $GPRMC,155235,A,4045.34214,N,07402.19662,W,2.64,201.4,130616,003.1,W*4B
1465833156 $GPRMC,155236,A,4045.34117,N,07402.19720,W,2.94,206.7,130616,003.1,W*44
1465833158 $GPRMC,155238,A,4045.33927,N,07402.19830,W,3.17,206.0,130616,003.1,W*45
1465833159 $GPRMC,155239,A,4045.33827,N,07402.19849,W,3.17,206.0,130616,003.1,W*4B
1465833160 $GPRMC,155240,A,4045.33754,N,07402.19846,W,2.97,206.0,130616,003.1,W*48
1465833162 $GPRMC,155242,A,4045.33638,N,07402.19846,W,2.35,177.2,130616,003.1,W*4E
1465833163 $GPRMC,155243,A,4045.33579,N,07402.19869,W,2.16,206.0,130616,003.1,W*42
1465833164 $GPRMC,155244,A,4045.33513,N,07402.19908,W,2.62,194.8,130616,003.1,W*4C
1465833166 $GPRMC,155246,A,4045.33397,N,07402.20033,W,2.62,204.3,130616,003.1,W*4E
1465833167 $GPRMC,155247,A,4045.33341,N,07402.20091,W,2.55,207.8,130616,003.1,W*40
1465833168 $GPRMC,155248,A,4045.33278,N,07402.20156,W,2.82,197.6,130616,003.1,W*40
1465833169 $GPRMC,155249,A,4045.33206,N,07402.20215,W,3.07,198.3,130616,003.1,W*4A
1465833170 $GPRMC,155250,A,4045.33154,N,07402.20258,W,2.82,198.3,130616,003.1,W*43
1465833172 $GPRMC,155252,A,4045.33044,N,07402.20354,W,2.14,194.8,130616,003.1,W*44
1465833173 $GPRMC,155253,A,4045.33007,N,07402.20378,W,1.73,194.8,130616,003.1,W*4E
1465833175 $GPRMC,155255,A,4045.32907,N,07402.20429,W,2.24,194.8,130616,003.1,W*42
1465833176 $GPRMC,155256,A,4045.32836,N,07402.20470,W,2.66,195.1,130616,003.1,W*40
1465833177 $GPRMC,155257,A,4045.32765,N,07402.20535,W,3.03,195.1,130616,003.1,W*4A
1465833178 $GPRMC,155258,A,4045.32695,N,07402.20600,W,3.03,206.0,130616,003.1,W*46
1465833179 $GPRMC,155259,A,4045.32618,N,07402.20670,W,3.03,206.7,130616,003.1,W*42
1465833180 $GPRMC,155300,A,4045.32541,N,07402.20723,W,3.15,209.5,130616,003.1,W*4D
1465833182 $GPRMC,155302,A,4045.32363,N,07402.20849,W,3.17,208.1,130616,003.1,W*4D
1465833183 $GPRMC,155303,A,4045.32272,N,07402.20915,W,3.17,208.1,130616,003.1,W*45
1465833185 $GPRMC,155305,A,4045.32152,N,07402.21052,W,2.49,215.5,130616,003.1,W*4B
1465833186 $GPRMC,155306,A,4045.32083,N,07402.21134,W,2.49,215.5,130616,003.1,W*44
1465833187 $GPRMC,155307,A,4045.32008,N,07402.21228,W,2.97,215.9,130616,003.1,W*47
1465833189 $GPRMC,155309,A,4045.31861,N,07402.21411,W,2.97,216.2,130616,003.1,W*49
1465833190 $GPRMC,155310,A,4045.31790,N,07402.21497,W,2.59,215.5,130616,003.1,W*48
1465833192 $GPRMC,155312,A,4045.31628,N,07402.21660,W,3.13,214.8,130616,003.1,W*41
1465833193 $GPRMC,155313,A,4045.31537,N,07402.21692,W,3.13,214.1,130616,003.1,W*49
1465833194 $GPRMC,155314,A,4045.31456,N,07402.21719,W,2.35,214.1,130616,003.1,W*4F
1465833196 $GPRMC,155316,A,4045.31327,N,07402.21775,W,1.73,213.8,130616,003.1,W*49
1465833197 $GPRMC,155317,A,4045.31273,N,07402.21804,W,1.34,213.8,130616,003.1,W*42
1465833199 $GPRMC,155319,A,4045.31125,N,07402.21876,W,2.47,203.9,130616,003.1,W*4E
1465833200 $GPRMC,155320,A,4045.31050,N,07402.21897,W,2.47,213.8,130616,003.1,W*48
1465833202 $GPRMC,155322,A,4045.30905,N,07402.21957,W,2.51,207.8,130616,003.1,W*4D
1465833203 $GPRMC,155323,A,4045.30843,N,07402.22001,W,2.64,212.0,130616,003.1,W*4C
1465833205 $GPRMC,155325,A,4045.30748,N,07402.22088,W,2.64,213.8,130616,003.1,W*46
1465833206 $GPRMC,155326,A,4045.30705,N,07402.22106,W,2.27,204.6,130616,003.1,W*44
1465833207 $GPRMC,155327,A,4045.30637,N,07402.22135,W,2.72,199.7,130616,003.1,W*43
1465833209 $GPRMC,155329,A,4045.30475,N,07402.22137,W,2.72,190.5,130616,003.1,W*40
1465833210 $GPRMC,155330,A,4045.30387,N,07402.22125,W,2.60,200.0,130616,003.1,W*4D
1465833211 $GPRMC,155331,A,4045.30313,N,07402.22106,W,2.60,192.0,130616,003.1,W*48
1465833212 $GPRMC,155332,A,4045.30236,N,07402.22152,W,2.92,192.7,130616,003.1,W*46
1465833213 $GPRMC,155333,A,4045.30156,N,07402.22201,W,2.92,192.7,130616,003.1,W*47
1465833215 $GPRMC,155335,A,4045.30011,N,07402.22309,W,2.24,194.4,130616,003.1,W*42
1465833216 $GPRMC,155336,A,4045.29942,N,07402.22369,W,2.14,196.5,130616,003.1,W*40
1465833217 $GPRMC,155337,A,4045.29871,N,07402.22425,W,3.19,202.9,130616,003.1,W*41
1465833218 $GPRMC,155338,A,4045.29784,N,07402.22495,W,3.58,200.4,130616,003.1,W*4A
1465833219 $GPRMC,155339,A,4045.29702,N,07402.22574,W,3.36,200.7,130616,003.1,W*40
1465833220 $GPRMC,155340,A,4045.29620,N,07402.22631,W,3.58,201.1,130616,003.1,W*42
1465833222 $GPRMC,155342,A,4045.29458,N,07402.22788,W,3.56,201.1,130616,003.1,W*40
1465833223 $GPRMC,155343,A,4045.29375,N,07402.22854,W,3.56,206.7,130616,003.1,W*46
1465833224 $GPRMC,155344,A,4045.29302,N,07402.22920,W,3.40,206.7,130616,003.1,W*44
1465833226 $GPRMC,155346,A,4045.29144,N,07402.22999,W,3.11,199.3,130616,003.1,W*41
1465833227 $GPRMC,155347,A,4045.29074,N,07402.23027,W,2.60,199.3,130616,003.1,W*48
1465833228 $GPRMC,155348,A,4045.29012,N,07402.23048,W,2.60,199.0,130616,003.1,W*4D
1465833230 $GPRMC,155350,A,4045.28915,N,07402.23092,W,1.73,199.0,130616,003.1,W*4D
1465833231 $GPRMC,155351,A,4045.28881,N,07402.23128,W,1.26,199.0,130616,003.1,W*40
1465833232 $GPRMC,155352,A,4045.28799,N,07402.23179,W,3.36,197.6,130616,003.1,W*4A
1465833234 $GPRMC,155354,A,4045.28604,N,07402.23251,W,3.03,197.6,130616,003.1,W*46
1465833235 $GPRMC,155355,A,4045.28500,N,07402.23267,W,3.03,196.9,130616,003.1,W*4B
1465833236 $GPRMC,155356,A,4045.28412,N,07402.23293,W,2.41,196.9,130616,003.1,W*46
1465833237 $GPRMC,155357,A,4045.28325,N,07402.23341,W,2.41,196.9,130616,003.1,W*4A
1465833238 $GPRMC,155358,A,4045.28265,N,07402.23403,W,2.33,210.9,130616,003.1,W*49
1465833240 $GPRMC,155400,A,4045.28143,N,07402.23512,W,2.33,197.9,130616,003.1,W*49
1465833241 $GPRMC,155401,A,4045.28080,N,07402.23545,W,2.29,195.1,130616,003.1,W*45
1465833242 $GPRMC,155401,A,4045.28080,N,07402.23545,W,2.29,195.1,130616,003.1,W*45
1465833244 $GPRMC,155404,A,4045.27852,N,07402.23683,W,2.70,201.1,130616,003.1,W*43
1465833245 $GPRMC,155405,A,4045.27770,N,07402.23751,W,3.07,203.6,130616,003.1,W*47
1465833246 $GPRMC,155406,A,4045.27683,N,07402.23846,W,3.42,206.0,130616,003.1,W*42
1465833247 $GPRMC,155407,A,4045.27599,N,07402.23930,W,3.07,209.2,130616,003.1,W*47
1465833249 $GPRMC,155409,A,4045.27418,N,07402.24054,W,3.32,216.6,130616,003.1,W*41
1465833250 $GPRMC,155410,A,4045.27313,N,07402.24149,W,4.57,216.6,130616,003.1,W*4C
1465833251 $GPRMC,155411,A,4045.27223,N,07402.24218,W,4.57,212.7,130616,003.1,W*4D
1465833252 $GPRMC,155412,A,4045.27139,N,07402.24274,W,3.52,209.9,130616,003.1,W*4A
1465833253 $GPRMC,155413,A,4045.27055,N,07402.24324,W,3.36,207.1,130616,003.1,W*40
1465833255 $GPRMC,155415,A,4045.26919,N,07402.24411,W,3.05,215.9,130616,003.1,W*4C
1465833256 $GPRMC,155416,A,4045.26880,N,07402.24444,W,1.71,215.9,130616,003.1,W*4F
1465833257 $GPRMC,155417,A,4045.26833,N,07402.24476,W,1.71,215.5,130616,003.1,W*4B
1465833258 $GPRMC,155418,A,4045.26733,N,07402.24532,W,1.71,203.6,130616,003.1,W*4E
1465833260 $GPRMC,155420,A,4045.26540,N,07402.24656,W,3.42,209.9,130616,003.1,W*45
1465833261 $GPRMC,155421,A,4045.26449,N,07402.24727,W,3.29,209.9,130616,003.1,W*46
1465833263 $GPRMC,155423,A,4045.26287,N,07402.24875,W,3.17,195.5,130616,003.1,W*4F
1465833264 $GPRMC,155424,A,4045.26209,N,07402.24941,W,3.42,195.8,130616,003.1,W*45
1465833266 $GPRMC,155426,A,4045.26095,N,07402.25021,W,2.43,195.8,130616,003.1,W*4E
1465833267 $GPRMC,155427,A,4045.26036,N,07402.25063,W,2.25,195.5,130616,003.1,W*4D
1465833268 $GPRMC,155428,A,4045.25969,N,07402.25108,W,2.72,196.9,130616,003.1,W*43
1465833270 $GPRMC,155430,A,4045.25810,N,07402.25188,W,2.72,193.7,130616,003.1,W*46
1465833271 $GPRMC,155431,A,4045.25734,N,07402.25224,W,2.72,194.1,130616,003.1,W*4A
1465833273 $GPRMC,155433,A,4045.25573,N,07402.25302,W,4.14,201.4,130616,003.1,W*40
1465833274 $GPRMC,155434,A,4045.25461,N,07402.25369,W,4.14,197.6,130616,003.1,W*46
1465833275 $GPRMC,155435,A,4045.25383,N,07402.25426,W,3.09,198.6,130616,003.1,W*44
1465833276 $GPRMC,155436,A,4045.25304,N,07402.25479,W,3.09,201.4,130616,003.1,W*43
1465833278 $GPRMC,155438,A,4045.25143,N,07402.25590,W,2.66,203.6,130616,003.1,W*42
1465833279 $GPRMC,155439,A,4045.25051,N,07402.25622,W,2.88,203.2,130616,003.1,W*4F
1465833280 $GPRMC,155440,A,4045.24932,N,07402.25649,W,2.88,202.1,130616,003.1,W*43
1465833281 $GPRMC,155441,A,4045.24817,N,07402.25679,W,2.94,201.4,130616,003.1,W*4C
1465833283 $GPRMC,155443,A,4045.24577,N,07402.25783,W,5.09,214.5,130616,003.1,W*47
1465833284 $GPRMC,155444,A,4045.24446,N,07402.25874,W,5.09,214.1,130616,003.1,W*40
1465833286 $GPRMC,155446,A,4045.24239,N,07402.26039,W,4.06,212.3,130616,003.1,W*44
1465833287 $GPRMC,155447,A,4045.24144,N,07402.26103,W,3.32,208.1,130616,003.1,W*4D
1465833289 $GPRMC,155449,A,4045.23940,N,07402.26194,W,3.32,205.7,130616,003.1,W*4D
1465833290 $GPRMC,155450,A,4045.23856,N,07402.26236,W,2.88,206.0,130616,003.1,W*4C
1465833291 $GPRMC,155451,A,4045.23771,N,07402.26277,W,2.88,201.1,130616,003.1,W*44
1465833292 $GPRMC,155452,A,4045.23687,N,07402.26320,W,2.70,201.1,130616,003.1,W*4B
1465833293 $GPRMC,155453,A,4045.23612,N,07402.26361,W,2.70,203.9,130616,003.1,W*49
1465833295 $GPRMC,155455,A,4045.23445,N,07402.26455,W,2.76,201.8,130616,003.1,W*4A
1465833296 $GPRMC,155456,A,4045.23373,N,07402.26497,W,2.76,202.5,130616,003.1,W*4B
1465833298 $GPRMC,155458,A,4045.23237,N,07402.26580,W,2.68,213.0,130616,003.1,W*49
1465833299 $GPRMC,155459,A,4045.23189,N,07402.26628,W,2.66,212.7,130616,003.1,W*47
1465833300 $GPRMC,155500,A,4045.23134,N,07402.26668,W,2.20,212.3,130616,003.1,W*4E
1465833302 $GPRMC,155502,A,4045.23090,N,07402.26689,W,0.00,212.3,130616,003.1,W*4C
1465833303 $GPRMC,155503,A,4045.23090,N,07402.26689,W,0.00,212.0,130616,003.1,W*4E
1465833304 $GPRMC,155504,A,4045.23090,N,07402.26689,W,0.00,212.0,130616,003.1,W*49
1465833305 $GPRMC,155505,A,4045.23090,N,07402.26689,W,0.00,212.0,130616,003.1,W*48
1465833307 $GPRMC,155507,A,4045.23090,N,07402.26689,W,0.00,212.0,130616,003.1,W*4A
1465833308 $GPRMC,155508,A,4045.23090,N,07402.26689,W,0.00,212.3,130616,003.1,W*46
1465833310 $GPRMC,155510,A,4045.23013,N,07402.26749,W,1.01,215.5,130616,003.1,W*48
1465833311 $GPRMC,155511,A,4045.22961,N,07402.26796,W,2.53,214.1,130616,003.1,W*47
1465833312 $GPRMC,155512,A,4045.22883,N,07402.26833,W,2.90,211.3,130616,003.1,W*41
1465833313 $GPRMC,155513,A,4045.22808,N,07402.26880,W,2.90,211.3,130616,003.1,W*4B
1465833315 $GPRMC,155515,A,4045.22734,N,07402.26974,W,1.96,211.6,130616,003.1,W*47
1465833316 $GPRMC,155516,A,4045.22699,N,07402.27023,W,1.59,177.5,130616,003.1,W*4B
1465833318 $GPRMC,155518,A,4045.22599,N,07402.27092,W,1.59,177.9,130616,003.1,W*40
1465833319 $GPRMC,155519,A,4045.22550,N,07402.27125,W,2.80,207.8,130616,003.1,W*4B
1465833320 $GPRMC,155520,A,4045.22493,N,07402.27178,W,1.73,208.1,130616,003.1,W*4E
1465833321 $GPRMC,155521,A,4045.22439,N,07402.27218,W,2.35,207.8,130616,003.1,W*4D
1465833322 $GPRMC,155522,A,4045.22396,N,07402.27283,W,2.16,208.5,130616,003.1,W*4D
1465833324 $GPRMC,155524,A,4045.22264,N,07402.27422,W,3.05,207.8,130616,003.1,W*4B
1465833325 $GPRMC,155525,A,4045.22189,N,07402.27487,W,2.84,207.8,130616,003.1,W*4D
1465833326 $GPRMC,155526,A,4045.22113,N,07402.27556,W,2.90,207.8,130616,003.1,W*45
1465833327 $GPRMC,155527,A,4045.22049,N,07402.27622,W,2.84,207.8,130616,003.1,W*4F
1465833328 $GPRMC,155528,A,4045.22007,N,07402.27668,W,2.06,208.1,130616,003.1,W*48
1465833330 $GPRMC,155530,A,4045.21924,N,07402.27752,W,1.59,207.4,130616,003.1,W*41
1465833331 $GPRMC,155531,A,4045.21858,N,07402.27804,W,2.53,191.6,130616,003.1,W*41
1465833332 $GPRMC,155532,A,4045.21783,N,07402.27845,W,2.10,192.3,130616,003.1,W*4F
1465833333 $GPRMC,155533,A,4045.21714,N,07402.27881,W,2.10,210.9,130616,003.1,W*4B
1465833334 $GPRMC,155534,A,4045.21651,N,07402.27920,W,2.02,210.6,130616,003.1,W*4A
1465833336 $GPRMC,155536,A,4045.21493,N,07402.28003,W,2.92,203.6,130616,003.1,W*48
1465833337 $GPRMC,155537,A,4045.21411,N,07402.28036,W,2.95,203.2,130616,003.1,W*46
1465833338 $GPRMC,155538,A,4045.21324,N,07402.28067,W,2.95,209.9,130616,003.1,W*4D
1465833339 $GPRMC,155539,A,4045.21232,N,07402.28100,W,2.92,205.3,130616,003.1,W*4B
1465833340 $GPRMC,155540,A,4045.21144,N,07402.28128,W,2.92,205.0,130616,003.1,W*4E
1465833342 $GPRMC,155542,A,4045.20954,N,07402.28181,W,2.90,200.0,130616,003.1,W*40
1465833343 $GPRMC,155543,A,4045.20880,N,07402.28193,W,2.90,199.7,130616,003.1,W*4E
1465833345 $GPRMC,155545,A,4045.20757,N,07402.28165,W,2.39,199.3,130616,003.1,W*43
1465833346 $GPRMC,155546,A,4045.20669,N,07402.28174,W,2.39,212.3,130616,003.1,W*4C
1465833347 $GPRMC,155547,A,4045.20590,N,07402.28221,W,2.49,212.3,130616,003.1,W*4C
1465833349 $GPRMC,155549,A,4045.20452,N,07402.28304,W,2.57,210.9,130616,003.1,W*4C
1465833350 $GPRMC,155550,A,4045.20361,N,07402.28356,W,2.57,210.6,130616,003.1,W*4B
1465833351 $GPRMC,155551,A,4045.20271,N,07402.28413,W,2.57,215.9,130616,003.1,W*46
1465833353 $GPRMC,155553,A,4045.20147,N,07402.28516,W,1.54,215.9,130616,003.1,W*46
1465833354 $GPRMC,155554,A,4045.20108,N,07402.28549,W,1.54,215.9,130616,003.1,W*40
1465833355 $GPRMC,155555,A,4045.20031,N,07402.28595,W,1.54,205.0,130616,003.1,W*43
1465833357 $GPRMC,155557,A,4045.19839,N,07402.28703,W,3.29,205.0,130616,003.1,W*4E
1465833358 $GPRMC,155558,A,4045.19742,N,07402.28758,W,3.50,202.9,130616,003.1,W*4C
1465833360 $GPRMC,155600,A,4045.19586,N,07402.28849,W,2.80,207.8,130616,003.1,W*4F
1465833361 $GPRMC,155601,A,4045.19516,N,07402.28907,W,2.80,204.6,130616,003.1,W*41
1465833362 $GPRMC,155602,A,4045.19434,N,07402.28980,W,2.86,211.6,130616,003.1,W*4E
1465833364 $GPRMC,155604,A,4045.19269,N,07402.29077,W,2.66,189.8,130616,003.1,W*44
1465833365 $GPRMC,155605,A,4045.19193,N,07402.29107,W,2.53,203.9,130616,003.1,W*43
1465833366 $GPRMC,155606,A,4045.19123,N,07402.29140,W,2.70,203.6,130616,003.1,W*46
1465833368 $GPRMC,155608,A,4045.18972,N,07402.29254,W,2.70,217.3,130616,003.1,W*43
1465833369 $GPRMC,155609,A,4045.18905,N,07402.29302,W,2.99,217.3,130616,003.1,W*47
1465833370 $GPRMC,155610,A,4045.18822,N,07402.29362,W,2.99,222.2,130616,003.1,W*4A
1465833371 $GPRMC,155611,A,4045.18743,N,07402.29431,W,3.19,221.8,130616,003.1,W*42
1465833373 $GPRMC,155613,A,4045.18624,N,07402.29647,W,3.46,237.7,130616,003.1,W*41
1465833374 $GPRMC,155614,A,4045.18587,N,07402.29758,W,3.46,237.7,130616,003.1,W*43
1465833375 $GPRMC,155615,A,4045.18563,N,07402.29863,W,2.82,265.4,130616,003.1,W*42
1465833376 $GPRMC,155616,A,4045.18543,N,07402.29964,W,2.25,265.1,130616,003.1,W*4D
1465833377 $GPRMC,155617,A,4045.18530,N,07402.30088,W,3.44,260.2,130616,003.1,W*4B
1465833378 $GPRMC,155618,A,4045.18512,N,07402.30229,W,3.44,260.2,130616,003.1,W*4D
1465833380 $GPRMC,155620,A,4045.18497,N,07402.30502,W,3.11,276.3,130616,003.1,W*42
1465833381 $GPRMC,155621,A,4045.18498,N,07402.30610,W,2.51,279.5,130616,003.1,W*40
1465833382 $GPRMC,155622,A,4045.18517,N,07402.30725,W,2.72,279.8,130616,003.1,W*4E
1465833383 $GPRMC,155623,A,4045.18543,N,07402.30825,W,2.51,307.3,130616,003.1,W*43
1465833384 $GPRMC,155624,A,4045.18588,N,07402.30909,W,2.35,308.0,130616,003.1,W*42
1465833386 $GPRMC,155626,A,4045.18748,N,07402.31052,W,2.60,352.6,130616,003.1,W*41
1465833387 $GPRMC,155627,A,4045.18832,N,07402.31055,W,2.49,353.0,130616,003.1,W*49
1465833388 $GPRMC,155628,A,4045.18930,N,07402.31026,W,2.49,20.7,130616,003.1,W*71
1465833389 $GPRMC,155629,A,4045.19018,N,07402.30980,W,2.68,21.1,130616,003.1,W*72
1465833390 $GPRMC,155630,A,4045.19088,N,07402.30926,W,2.68,21.1,130616,003.1,W*7F
1465833392 $GPRMC,155632,A,4045.19272,N,07402.30829,W,2.68,39.4,130616,003.1,W*78
1465833393 $GPRMC,155633,A,4045.19352,N,07402.30780,W,2.62,40.1,130616,003.1,W*77
1465833395 $GPRMC,155635,A,4045.19504,N,07402.30651,W,2.94,39.4,130616,003.1,W*7B
1465833396 $GPRMC,155636,A,4045.19577,N,07402.30601,W,2.94,2.1,130616,003.1,W*44
1465833398 $GPRMC,155638,A,4045.19739,N,07402.30591,W,2.66,11.2,130616,003.1,W*74
1465833399 $GPRMC,155639,A,4045.19846,N,07402.30593,W,3.67,11.2,130616,003.1,W*70
1465833401 $GPRMC,155641,A,4045.20006,N,07402.30533,W,3.27,22.1,130616,003.1,W*74
1465833402 $GPRMC,155642,A,4045.20063,N,07402.30481,W,2.57,22.5,130616,003.1,W*7E
1465833404 $GPRMC,155644,A,4045.20136,N,07402.30390,W,0.99,23.9,130616,003.1,W*73
1465833405 $GPRMC,155645,A,4045.20160,N,07402.30339,W,2.24,30.2,130616,003.1,W*7F
1465833406 $GPRMC,155646,A,4045.20205,N,07402.30274,W,2.24,35.2,130616,003.1,W*71
1465833407 $GPRMC,155647,A,4045.20278,N,07402.30191,W,3.01,26.7,130616,003.1,W*73
1465833409 $GPRMC,155649,A,4045.20465,N,07402.30091,W,2.76,23.6,130616,003.1,W*73
1465833410 $GPRMC,155650,A,4045.20558,N,07402.30072,W,3.73,15.8,130616,003.1,W*76
1465833411 $GPRMC,155651,A,4045.20673,N,07402.30040,W,3.69,12.3,130616,003.1,W*7B
1465833413 $GPRMC,155653,A,4045.20884,N,07402.30011,W,3.07,0.4,130616,003.1,W*47
1465833414 $GPRMC,155654,A,4045.21002,N,07402.30007,W,3.48,0.4,130616,003.1,W*4B
1465833415 $GPRMC,155655,A,4045.21121,N,07402.30002,W,3.48,0.4,130616,003.1,W*4F
1465833416 $GPRMC,155656,A,4045.21263,N,07402.29996,W,3.48,3.2,130616,003.1,W*40
1465833418 $GPRMC,155658,A,4045.21536,N,07402.30010,W,3.56,342.1,130616,003.1,W*4C
1465833419 $GPRMC,155659,A,4045.21655,N,07402.30010,W,3.05,11.2,130616,003.1,W*7B
1465833420 $GPRMC,155700,A,4045.21748,N,07402.29981,W,3.19,15.5,130616,003.1,W*7C
1465833422 $GPRMC,155702,A,4045.21939,N,07402.29907,W,3.03,15.5,130616,003.1,W*73
1465833423 $GPRMC,155703,A,4045.22045,N,07402.29869,W,3.46,9.5,130616,003.1,W*46
1465833425 $GPRMC,155705,A,4045.22260,N,07402.29808,W,3.46,1.1,130616,003.1,W*4E
1465833426 $GPRMC,155706,A,4045.22370,N,07402.29782,W,3.19,6.0,130616,003.1,W*4C
1465833427 $GPRMC,155707,A,4045.22464,N,07402.29759,W,3.19,11.6,130616,003.1,W*79
1465833429 $GPRMC,155709,A,4045.22600,N,07402.29591,W,3.27,32.0,130616,003.1,W*7B
1465833430 $GPRMC,155710,A,4045.22650,N,07402.29474,W,3.27,32.3,130616,003.1,W*7F
1465833432 $GPRMC,155712,A,4045.22786,N,07402.29246,W,3.42,25.3,130616,003.1,W*75
1465833433 $GPRMC,155713,A,4045.22861,N,07402.29155,W,3.48,20.4,130616,003.1,W*7B
1465833434 $GPRMC,155714,A,4045.22940,N,07402.29081,W,3.48,22.1,130616,003.1,W*71
1465833435 $GPRMC,155715,A,4045.23008,N,07402.28994,W,3.32,35.5,130616,003.1,W*77
1465833436 $GPRMC,155716,A,4045.23089,N,07402.28916,W,3.32,32.7,130616,003.1,W*72
1465833437 $GPRMC,155717,A,4045.23170,N,07402.28845,W,2.92,33.0,130616,003.1,W*7E
1465833439 $GPRMC,155719,A,4045.23307,N,07402.28676,W,3.29,33.0,130616,003.1,W*7D
1465833440 $GPRMC,155720,A,4045.23366,N,07402.28599,W,3.29,40.4,130616,003.1,W*72
1465833441 $GPRMC,155721,A,4045.23428,N,07402.28547,W,2.86,40.1,130616,003.1,W*7C
1465833442 $GPRMC,155722,A,4045.23484,N,07402.28507,W,2.12,26.0,130616,003.1,W*71
1465833444 $GPRMC,155724,A,4045.23646,N,07402.28389,W,3.44,32.0,130616,003.1,W*7C
1465833445 $GPRMC,155725,A,4045.23720,N,07402.28302,W,3.44,32.0,130616,003.1,W*7F
1465833447 $GPRMC,155727,A,4045.23870,N,07402.28178,W,3.23,26.7,130616,003.1,W*7B
1465833448 $GPRMC,155728,A,4045.23952,N,07402.28107,W,3.23,31.3,130616,003.1,W*7F
1465833449 $GPRMC,155729,A,4045.24028,N,07402.28040,W,3.19,31.3,130616,003.1,W*76
1465833451 $GPRMC,155731,A,4045.24181,N,07402.27934,W,2.95,25.7,130616,003.1,W*7C
1465833452 $GPRMC,155732,A,4045.24244,N,07402.27895,W,2.95,26.0,130616,003.1,W*7B
1465833453 $GPRMC,155733,A,4045.24316,N,07402.27854,W,2.95,21.4,130616,003.1,W*72
1465833454 $GPRMC,155734,A,4045.24419,N,07402.27805,W,3.50,21.4,130616,003.1,W*71
1465833455 $GPRMC,155735,A,4045.24548,N,07402.27778,W,3.71,10.5,130616,003.1,W*70
1465833456 $GPRMC,155736,A,4045.24683,N,07402.27762,W,4.26,6.3,130616,003.1,W*48
1465833458 $GPRMC,155738,A,4045.24936,N,07402.27759,W,4.26,2.8,130616,003.1,W*40
1465833459 $GPRMC,155739,A,4045.25044,N,07402.27764,W,3.98,357.9,130616,003.1,W*42
1465833461 $GPRMC,155741,A,4045.25229,N,07402.27753,W,3.05,358.2,130616,003.1,W*40
1465833462 $GPRMC,155742,A,4045.25339,N,07402.27764,W,3.05,357.5,130616,003.1,W*4F
1465833463 $GPRMC,155743,A,4045.25440,N,07402.27724,W,2.66,9.8,130616,003.1,W*42
1465833464 $GPRMC,155744,A,4045.25545,N,07402.27653,W,3.60,22.5,130616,003.1,W*73
1465833466 $GPRMC,155746,A,4045.25734,N,07402.27541,W,2.95,15.8,130616,003.1,W*77
1465833467 $GPRMC,155747,A,4045.25812,N,07402.27473,W,2.94,4.2,130616,003.1,W*46
1465833468 $GPRMC,155748,A,4045.25881,N,07402.27414,W,2.90,6.0,130616,003.1,W*46
1465833469 $GPRMC,155749,A,4045.25929,N,07402.27344,W,2.66,6.7,130616,003.1,W*48
1465833470 $GPRMC,155750,A,4045.25985,N,07402.27299,W,2.94,0.0,130616,003.1,W*4B
1465833472 $GPRMC,155752,A,4045.26137,N,07402.27200,W,3.38,19.7,130616,003.1,W*73
1465833473 $GPRMC,155753,A,4045.26224,N,07402.27127,W,3.56,22.5,130616,003.1,W*77
1465833474 $GPRMC,155754,A,4045.26294,N,07402.27039,W,2.74,22.5,130616,003.1,W*74
1465833475 $GPRMC,155755,A,4045.26351,N,07402.26949,W,2.97,22.9,130616,003.1,W*73
1465833477 $GPRMC,155757,A,4045.26445,N,07402.26754,W,2.66,27.8,130616,003.1,W*7B
1465833478 $GPRMC,155758,A,4045.26496,N,07402.26647,W,2.70,27.8,130616,003.1,W*7E
1465833479 $GPRMC,155759,A,4045.26565,N,07402.26558,W,3.27,27.8,130616,003.1,W*7C
1465833481 $GPRMC,155801,A,4045.26720,N,07402.26411,W,2.99,27.8,130616,003.1,W*75
1465833482 $GPRMC,155802,A,4045.26800,N,07402.26331,W,2.99,27.4,130616,003.1,W*72
1465833483 $GPRMC,155803,A,4045.26880,N,07402.26248,W,2.99,27.1,130616,003.1,W*71
1465833484 $GPRMC,155804,A,4045.26959,N,07402.26175,W,2.99,28.8,130616,003.1,W*78
1465833485 $GPRMC,155805,A,4045.27041,N,07402.26093,W,2.99,29.2,130616,003.1,W*7A
1465833487 $GPRMC,155807,A,4045.27176,N,07402.25913,W,2.78,27.8,130616,003.1,W*74
1465833488 $GPRMC,155808,A,4045.27231,N,07402.25823,W,2.43,45.4,130616,003.1,W*79
1465833489 $GPRMC,155809,A,4045.27278,N,07402.25747,W,2.43,45.0,130616,003.1,W*7C
1465833490 $GPRMC,155810,A,4045.27301,N,07402.25679,W,2.12,45.7,130616,003.1,W*74
1465833491 $GPRMC,155811,A,4045.27337,N,07402.25621,W,2.12,45.4,130616,003.1,W*7E
1465833493 $GPRMC,155813,A,4045.27459,N,07402.25550,W,3.11,31.3,130616,003.1,W*70
1465833494 $GPRMC,155814,A,4045.27522,N,07402.25503,W,3.01,23.6,130616,003.1,W*7B
1465833495 $GPRMC,155815,A,4045.27603,N,07402.25458,W,3.11,36.2,130616,003.1,W*74
1465833497 $GPRMC,155817,A,4045.27768,N,07402.25306,W,4.08,67.1,130616,003.1,W*7E
1465833498 $GPRMC,155818,A,4045.27830,N,07402.25171,W,3.87,66.4,130616,003.1,W*75
1465833499 $GPRMC,155819,A,4045.27882,N,07402.25055,W,3.87,66.4,130616,003.1,W*7A
1465833500 $GPRMC,155820,A,4045.27908,N,07402.24935,W,3.17,67.1,130616,003.1,W*70
1465833502 $GPRMC,155822,A,4045.28124,N,07402.24925,W,4.96,332.6,130616,003.1,W*40
1465833503 $GPRMC,155823,A,4045.28221,N,07402.24996,W,4.12,332.9,130616,003.1,W*4C
1465833505 $GPRMC,155825,A,4045.28368,N,07402.24992,W,2.45,20.0,130616,003.1,W*7F
1465833506 $GPRMC,155826,A,4045.28463,N,07402.24940,W,3.52,24.6,130616,003.1,W*7A
1465833507 $GPRMC,155827,A,4045.28557,N,07402.24862,W,3.52,45.4,130616,003.1,W*79
1465833509 $GPRMC,155829,A,4045.28711,N,07402.24706,W,2.80,36.6,130616,003.1,W*72
1465833510 $GPRMC,155830,A,4045.28804,N,07402.24641,W,2.78,42.9,130616,003.1,W*78
1465833511 $GPRMC,155831,A,4045.28900,N,07402.24534,W,4.65,51.0,130616,003.1,W*7C
1465833513 $GPRMC,155833,A,4045.29080,N,07402.24366,W,3.50,42.2,130616,003.1,W*7E
1465833514 $GPRMC,155834,A,4045.29169,N,07402.24344,W,3.13,18.6,130616,003.1,W*73
1465833516 $GPRMC,155836,A,4045.29407,N,07402.24273,W,3.27,28.5,130616,003.1,W*7E
1465833517 $GPRMC,155837,A,4045.29506,N,07402.24225,W,3.27,28.8,130616,003.1,W*71
1465833518 $GPRMC,155838,A,4045.29591,N,07402.24176,W,2.84,28.8,130616,003.1,W*7D
1465833519 $GPRMC,155839,A,4045.29676,N,07402.24121,W,2.84,35.2,130616,003.1,W*72
1465833521 $GPRMC,155841,A,4045.29850,N,07402.24018,W,2.27,31.6,130616,003.1,W*75
1465833522 $GPRMC,155842,A,4045.29917,N,07402.23993,W,2.59,28.1,130616,003.1,W*7F
1465833523 $GPRMC,155843,A,4045.30000,N,07402.23955,W,2.59,20.4,130616,003.1,W*7E
1465833524 $GPRMC,155844,A,4045.30089,N,07402.23902,W,3.71,26.7,130616,003.1,W*74
1465833526 $GPRMC,155846,A,4045.30260,N,07402.23823,W,3.25,26.4,130616,003.1,W*73
1465833527 $GPRMC,155847,A,4045.30356,N,07402.23787,W,3.56,20.0,130616,003.1,W*71
1465833529 $GPRMC,155849,A,4045.30550,N,07402.23731,W,3.17,19.7,130616,003.1,W*7A
1465833530 $GPRMC,155850,A,4045.30657,N,07402.23726,W,3.17,1.8,130616,003.1,W*46
1465833531 $GPRMC,155851,A,4045.30768,N,07402.23725,W,3.62,2.5,130616,003.1,W*45
1465833532 $GPRMC,155852,A,4045.30872,N,07402.23721,W,3.62,5.6,130616,003.1,W*42
1465833534 $GPRMC,155854,A,4045.31048,N,07402.23660,W,2.80,27.8,130616,003.1,W*73
1465833535 $GPRMC,155855,A,4045.31127,N,07402.23598,W,2.97,35.9,130616,003.1,W*7A
1465833536 $GPRMC,155856,A,4045.31245,N,07402.23562,W,3.89,21.4,130616,003.1,W*7D
1465833538 $GPRMC,155858,A,4045.31418,N,07402.23453,W,3.03,18.3,130616,003.1,W*71
1465833539 $GPRMC,155859,A,4045.31487,N,07402.23371,W,3.03,36.9,130616,003.1,W*77
1465833540 $GPRMC,155900,A,4045.31557,N,07402.23270,W,3.21,22.5,130616,003.1,W*7F
1465833541 $GPRMC,155901,A,4045.31605,N,07402.23199,W,3.21,22.5,130616,003.1,W*7E
1465833543 $GPRMC,155903,A,4045.31725,N,07402.23032,W,3.11,21.4,130616,003.1,W*7E
1465833544 $GPRMC,155904,A,4045.31802,N,07402.22953,W,3.11,23.6,130616,003.1,W*7C
1465833546 $GPRMC,155906,A,4045.31949,N,07402.22808,W,3.73,33.4,130616,003.1,W*78
1465833547 $GPRMC,155907,A,4045.32020,N,07402.22726,W,3.30,31.6,130616,003.1,W*78
1465833548 $GPRMC,155908,A,4045.32087,N,07402.22665,W,3.17,31.3,130616,003.1,W*7C
1465833549 $GPRMC,155909,A,4045.32157,N,07402.22623,W,2.84,31.3,130616,003.1,W*78
1465833551 $GPRMC,155911,A,4045.32360,N,07402.22566,W,3.29,9.5,130616,003.1,W*4E
1465833552 $GPRMC,155912,A,4045.32459,N,07402.22541,W,3.29,9.5,130616,003.1,W*45
1465833553 $GPRMC,155913,A,4045.32555,N,07402.22509,W,3.29,9.5,130616,003.1,W*45
1465833554 $GPRMC,155914,A,4045.32652,N,07402.22469,W,3.42,13.4,130616,003.1,W*76
1465833556 $GPRMC,155916,A,4045.32858,N,07402.22403,W,3.32,13.0,130616,003.1,W*7F
1465833557 $GPRMC,155917,A,4045.32956,N,07402.22360,W,3.30,23.9,130616,003.1,W*7B
1465833558 $GPRMC,155918,A,4045.33050,N,07402.22302,W,3.30,27.1,130616,003.1,W*72
1465833560 $GPRMC,155920,A,4045.33233,N,07402.22198,W,3.17,19.0,130616,003.1,W*76
1465833561 $GPRMC,155921,A,4045.33322,N,07402.22148,W,3.17,18.6,130616,003.1,W*7C
1465833562 $GPRMC,155922,A,4045.33399,N,07402.22125,W,2.04,16.5,130616,003.1,W*7A
1465833563 $GPRMC,155923,A,4045.33481,N,07402.22102,W,3.07,16.9,130616,003.1,W*7E
1465833564 $GPRMC,155924,A,4045.33570,N,07402.22065,W,2.90,16.9,130616,003.1,W*79
1465833565 $GPRMC,155925,A,4045.33656,N,07402.22019,W,2.90,16.5,130616,003.1,W*78
1465833566 $GPRMC,155926,A,4045.33740,N,07402.21975,W,2.76,16.9,130616,003.1,W*79
1465833568 $GPRMC,155928,A,4045.33918,N,07402.21865,W,3.05,29.5,130616,003.1,W*71
1465833569 $GPRMC,155929,A,4045.34008,N,07402.21798,W,3.05,29.5,130616,003.1,W*72
1465833570 $GPRMC,155930,A,4045.34097,N,07402.21734,W,3.05,29.5,130616,003.1,W*7A
1465833572 $GPRMC,155932,A,4045.34293,N,07402.21649,W,3.81,10.9,130616,003.1,W*7F
1465833573 $GPRMC,155933,A,4045.34399,N,07402.21635,W,3.81,10.9,130616,003.1,W*7E
1465833574 $GPRMC,155934,A,4045.34505,N,07402.21624,W,3.54,10.9,130616,003.1,W*72
1465833576 $GPRMC,155936,A,4045.34696,N,07402.21575,W,2.68,11.2,130616,003.1,W*7A
1465833577 $GPRMC,155937,A,4045.34788,N,07402.21549,W,3.21,10.9,130616,003.1,W*7C
1465833578 $GPRMC,155938,A,4045.34861,N,07402.21502,W,2.68,11.2,130616,003.1,W*72
1465833579 $GPRMC,155939,A,4045.34922,N,07402.21443,W,2.66,40.4,130616,003.1,W*7D
1465833581 $GPRMC,155941,A,4045.35059,N,07402.21308,W,2.80,23.6,130616,003.1,W*71
1465833582 $GPRMC,155942,A,4045.35138,N,07402.21257,W,3.07,22.5,130616,003.1,W*73
1465833584 $GPRMC,155944,A,4045.35329,N,07402.21205,W,3.17,22.1,130616,003.1,W*75
1465833585 $GPRMC,155945,A,4045.35415,N,07402.21158,W,3.19,17.2,130616,003.1,W*7C
1465833587 $GPRMC,155947,A,4045.35593,N,07402.21035,W,3.52,21.8,130616,003.1,W*7B
1465833588 $GPRMC,155948,A,4045.35681,N,07402.20989,W,3.27,15.5,130616,003.1,W*73
1465833589 $GPRMC,155949,A,4045.35768,N,07402.20944,W,3.27,18.6,130616,003.1,W*7B
1465833590 $GPRMC,155950,A,4045.35850,N,07402.20884,W,3.30,27.4,130616,003.1,W*72
1465833591 $GPRMC,155951,A,4045.35926,N,07402.20814,W,3.05,25.0,130616,003.1,W*7A
1465833593 $GPRMC,155953,A,4045.36075,N,07402.20682,W,3.05,21.1,130616,003.1,W*70
1465833594 $GPRMC,155954,A,4045.36157,N,07402.20622,W,3.25,19.7,130616,003.1,W*73
1465833595 $GPRMC,155955,A,4045.36243,N,07402.20565,W,3.46,19.3,130616,003.1,W*75
1465833597 $GPRMC,155957,A,4045.36366,N,07402.20431,W,3.05,39.0,130616,003.1,W*77
1465833598 $GPRMC,155958,A,4045.36406,N,07402.20380,W,1.96,38.3,130616,003.1,W*7E
1465833599 $GPRMC,155959,A,4045.36471,N,07402.20325,W,1.96,38.7,130616,003.1,W*74
1465833600 $GPRMC,160000,A,4045.36554,N,07402.20277,W,3.15,17.9,130616,003.1,W*7D
1465833602 $GPRMC,160002,A,4045.36753,N,07402.20187,W,3.32,9.5,130616,003.1,W*40
1465833603 $GPRMC,160003,A,4045.36862,N,07402.20164,W,3.48,5.3,130616,003.1,W*46
1465833604 $GPRMC,160004,A,4045.36962,N,07402.20146,W,3.48,15.8,130616,003.1,W*7A
1465833605 $GPRMC,160005,A,4045.37049,N,07402.20105,W,3.19,23.6,130616,003.1,W*72
1465833606 $GPRMC,160006,A,4045.37129,N,07402.20047,W,3.19,22.5,130616,003.1,W*73
1465833608 $GPRMC,160008,A,4045.37284,N,07402.19917,W,3.15,26.7,130616,003.1,W*75
1465833609 $GPRMC,160009,A,4045.37364,N,07402.19848,W,3.36,26.0,130616,003.1,W*76
1465833610 $GPRMC,160010,A,4045.37442,N,07402.19778,W,3.15,25.7,130616,003.1,W*74
1465833611 $GPRMC,160011,A,4045.37513,N,07402.19720,W,3.15,21.8,130616,003.1,W*76
1465833613 $GPRMC,160013,A,4045.37656,N,07402.19624,W,2.74,27.4,130616,003.1,W*7F
1465833614 $GPRMC,160014,A,4045.37744,N,07402.19556,W,2.90,31.6,130616,003.1,W*73
1465833615 $GPRMC,160015,A,4045.37822,N,07402.19484,W,2.59,32.0,130616,003.1,W*73
1465833616 $GPRMC,160016,A,4045.37899,N,07402.19414,W,3.23,27.8,130616,003.1,W*79
1465833618 $GPRMC,160018,A,4045.38063,N,07402.19240,W,3.23,73.1,130616,003.1,W*7A
1465833619 $GPRMC,160019,A,4045.38128,N,07402.19139,W,2.14,72.1,130616,003.1,W*7C
1465833620 $GPRMC,160020,A,4045.38176,N,07402.19068,W,2.27,71.7,130616,003.1,W*7D
1465833621 $GPRMC,160021,A,4045.38228,N,07402.19006,W,2.27,72.1,130616,003.1,W*79
1465833623 $GPRMC,160023,A,4045.38367,N,07402.18913,W,2.27,71.7,130616,003.1,W*78
1465833624 $GPRMC,160024,A,4045.38480,N,07402.18880,W,3.38,17.9,130616,003.1,W*7B
1465833625 $GPRMC,160025,A,4045.38561,N,07402.18823,W,3.38,23.9,130616,003.1,W*7A
1465833626 $GPRMC,160026,A,4045.38621,N,07402.18751,W,2.64,39.7,130616,003.1,W*79
1465833627 $GPRMC,160027,A,4045.38677,N,07402.18659,W,2.64,57.0,130616,003.1,W*7D
1465833628 $GPRMC,160028,A,4045.38728,N,07402.18604,W,1.90,42.2,130616,003.1,W*7F
1465833630 $GPRMC,160030,A,4045.38916,N,07402.18577,W,2.90,7.7,130616,003.1,W*45
1465833631 $GPRMC,160031,A,4045.39024,N,07402.18570,W,3.03,11.6,130616,003.1,W*77
1465833633 $GPRMC,160033,A,4045.39216,N,07402.18491,W,3.09,16.5,130616,003.1,W*76
1465833634 $GPRMC,160034,A,4045.39315,N,07402.18439,W,3.09,16.5,130616,003.1,W*71
1465833635 $GPRMC,160035,A,4045.39406,N,07402.18396,W,3.01,16.9,130616,003.1,W*73
1465833636 $GPRMC,160036,A,4045.39491,N,07402.18343,W,3.01,16.9,130616,003.1,W*76
1465833638 $GPRMC,160038,A,4045.39633,N,07402.18226,W,2.74,16.9,130616,003.1,W*73
1465833639 $GPRMC,160039,A,4045.39745,N,07402.18228,W,2.64,29.9,130616,003.1,W*71
1465833641 $GPRMC,160041,A,4045.39961,N,07402.18183,W,2.64,23.2,130616,003.1,W*75
1465833642 $GPRMC,160042,A,4045.40025,N,07402.18111,W,2.70,23.2,130616,003.1,W*7F
1465833643 $GPRMC,160043,A,4045.40120,N,07402.18083,W,2.70,23.9,130616,003.1,W*7B
1465833644 $GPRMC,160044,A,4045.40224,N,07402.18057,W,2.60,15.5,130616,003.1,W*7A
1465833645 $GPRMC,160045,A,4045.40329,N,07402.18020,W,2.60,20.7,130616,003.1,W*73
1465833647 $GPRMC,160047,A,4045.40530,N,07402.17907,W,3.48,30.6,130616,003.1,W*77
1465833648 $GPRMC,160048,A,4045.40615,N,07402.17852,W,3.13,18.3,130616,003.1,W*7C
1465833649 $GPRMC,160049,A,4045.40707,N,07402.17793,W,3.13,22.1,130616,003.1,W*76
1465833650 $GPRMC,160050,A,4045.40796,N,07402.17737,W,3.25,21.8,130616,003.1,W*77
1465833651 $GPRMC,160051,A,4045.40896,N,07402.17680,W,3.58,22.1,130616,003.1,W*74
1465833653 $GPRMC,160053,A,4045.41065,N,07402.17572,W,3.34,31.3,130616,003.1,W*77
1465833654 $GPRMC,160054,A,4045.41124,N,07402.17532,W,2.88,31.3,130616,003.1,W*76
1465833655 $GPRMC,160055,A,4045.41164,N,07402.17488,W,1.57,31.3,130616,003.1,W*72
1465833657 $GPRMC,160057,A,4045.41302,N,07402.17376,W,2.84,19.3,130616,003.1,W*73
1465833658 $GPRMC,160058,A,4045.41358,N,07402.17326,W,2.84,22.1,130616,003.1,W*7C
1465833659 $GPRMC,160059,A,4045.41404,N,07402.17278,W,1.90,31.6,130616,003.1,W*7A
1465833661 $GPRMC,160101,A,4045.41513,N,07402.17175,W,2.37,23.6,130616,003.1,W*72
1465833662 $GPRMC,160102,A,4045.41576,N,07402.17119,W,2.43,24.3,130616,003.1,W*79
1465833663 $GPRMC,160103,A,4045.41629,N,07402.17075,W,1.61,31.6,130616,003.1,W*78
1465833665 $GPRMC,160105,A,4045.41751,N,07402.16925,W,3.05,30.2,130616,003.1,W*78
1465833666 $GPRMC,160106,A,4045.41835,N,07402.16857,W,3.07,7.4,130616,003.1,W*42
1465833667 $GPRMC,160107,A,4045.41940,N,07402.16798,W,3.63,8.1,130616,003.1,W*44
1465833668 $GPRMC,160108,A,4045.42019,N,07402.16776,W,2.66,7.4,130616,003.1,W*43
1465833669 $GPRMC,160109,A,4045.42078,N,07402.16759,W,2.66,7.4,130616,003.1,W*48
1465833671 $GPRMC,160111,A,4045.42127,N,07402.16679,W,1.69,7.7,130616,003.1,W*46
1465833672 $GPRMC,160112,A,4045.42145,N,07402.16559,W,2.39,77.0,130616,003.1,W*76
1465833674 $GPRMC,160114,A,4045.42258,N,07402.16378,W,3.48,7.4,130616,003.1,W*4E
1465833675 $GPRMC,160115,A,4045.42292,N,07402.16327,W,1.79,8.1,130616,003.1,W*49
1465833676 $GPRMC,160116,A,4045.42322,N,07402.16307,W,1.42,8.1,130616,003.1,W*4A
1465833678 $GPRMC,160118,A,4045.42468,N,07402.16265,W,3.36,1.1,130616,003.1,W*40
1465833679 $GPRMC,160119,A,4045.42568,N,07402.16270,W,3.36,357.9,130616,003.1,W*4C
1465833681 $GPRMC,160121,A,4045.42753,N,07402.16272,W,2.94,1.4,130616,003.1,W*4B
1465833682 $GPRMC,160122,A,4045.42835,N,07402.16231,W,2.94,23.2,130616,003.1,W*76
1465833683 $GPRMC,160123,A,4045.42906,N,07402.16175,W,2.59,26.7,130616,003.1,W*74
1465833684 $GPRMC,160124,A,4045.42959,N,07402.16098,W,2.59,26.4,130616,003.1,W*78
1465833686 $GPRMC,160126,A,4045.43123,N,07402.16011,W,2.84,26.0,130616,003.1,W*7B
1465833687 $GPRMC,160127,A,4045.43203,N,07402.15991,W,2.84,26.4,130616,003.1,W*7D
1465833689 $GPRMC,160129,A,4045.43370,N,07402.15942,W,3.60,12.7,130616,003.1,W*77
1465833690 $GPRMC,160130,A,4045.43465,N,07402.15874,W,3.03,13.4,130616,003.1,W*7F
1465833691 $GPRMC,160131,A,4045.43554,N,07402.15798,W,3.36,30.2,130616,003.1,W*71
1465833692 $GPRMC,160132,A,4045.43644,N,07402.15725,W,2.24,30.2,130616,003.1,W*74
1465833694 $GPRMC,160134,A,4045.43779,N,07402.15604,W,2.24,30.2,130616,003.1,W*7F
1465833695 $GPRMC,160135,A,4045.43836,N,07402.15542,W,1.94,30.2,130616,003.1,W*73
1465833696 $GPRMC,160136,A,4045.43940,N,07402.15478,W,1.94,7.0,130616,003.1,W*4E
1465833698 $GPRMC,160138,A,4045.44156,N,07402.15373,W,3.29,16.9,130616,003.1,W*79
1465833699 $GPRMC,160139,A,4045.44270,N,07402.15320,W,3.13,27.1,130616,003.1,W*7A
1465833701 $GPRMC,160141,A,4045.44468,N,07402.15200,W,2.94,19.7,130616,003.1,W*7C
1465833702 $GPRMC,160142,A,4045.44563,N,07402.15149,W,2.94,19.7,130616,003.1,W*7B
1465833703 $GPRMC,160143,A,4045.44659,N,07402.15115,W,2.92,19.7,130616,003.1,W*7F
1465833704 $GPRMC,160144,A,4045.44750,N,07402.15074,W,2.92,19.7,130616,003.1,W*76
1465833706 $GPRMC,160146,A,4045.44914,N,07402.14948,W,3.29,22.9,130616,003.1,W*7A
1465833707 $GPRMC,160147,A,4045.44986,N,07402.14875,W,3.29,26.4,130616,003.1,W*76
1465833709 $GPRMC,160149,A,4045.45126,N,07402.14722,W,2.66,27.8,130616,003.1,W*71
1465833710 $GPRMC,160150,A,4045.45212,N,07402.14647,W,3.03,28.1,130616,003.1,W*7B
1465833711 $GPRMC,160151,A,4045.45299,N,07402.14583,W,3.03,27.8,130616,003.1,W*74
1465833712 $GPRMC,160152,A,4045.45383,N,07402.14534,W,2.55,27.1,130616,003.1,W*7A
1465833714 $GPRMC,160154,A,4045.45582,N,07402.14442,W,2.55,26.4,130616,003.1,W*7F
1465833715 $GPRMC,160155,A,4045.45699,N,07402.14379,W,3.50,32.3,130616,003.1,W*7E
1465833716 $GPRMC,160156,A,4045.45818,N,07402.14303,W,3.50,32.3,130616,003.1,W*77
1465833717 $GPRMC,160157,A,4045.45918,N,07402.14248,W,3.50,32.0,130616,003.1,W*7A
1465833719 $GPRMC,160159,A,4045.46119,N,07402.14181,W,3.11,17.2,130616,003.1,W*78
1465833720 $GPRMC,160200,A,4045.46221,N,07402.14161,W,3.19,18.6,130616,003.1,W*72
1465833721 $GPRMC,160201,A,4045.46342,N,07402.14149,W,3.73,1.1,130616,003.1,W*4E
1465833722 $GPRMC,160202,A,4045.46411,N,07402.14120,W,3.19,14.1,130616,003.1,W*7B
1465833723 $GPRMC,160203,A,4045.46453,N,07402.14077,W,1.94,19.0,130616,003.1,W*74
1465833724 $GPRMC,160204,A,4045.46495,N,07402.13990,W,1.94,48.2,130616,003.1,W*78
1465833726 $GPRMC,160206,A,4045.46570,N,07402.13879,W,1.50,19.3,130616,003.1,W*7B
1465833727 $GPRMC,160207,A,4045.46627,N,07402.13850,W,1.50,7.4,130616,003.1,W*48
1465833728 $GPRMC,160208,A,4045.46701,N,07402.13821,W,2.37,2.1,130616,003.1,W*46
1465833729 $GPRMC,160209,A,4045.46802,N,07402.13825,W,3.03,0.7,130616,003.1,W*4D
1465833730 $GPRMC,160210,A,4045.46909,N,07402.13830,W,3.48,3.2,130616,003.1,W*42
1465833732 $GPRMC,160212,A,4045.47121,N,07402.13778,W,3.46,12.7,130616,003.1,W*7B
1465833733 $GPRMC,160213,A,4045.47225,N,07402.13716,W,3.42,29.9,130616,003.1,W*77
1465833735 $GPRMC,160215,A,4045.47390,N,07402.13519,W,3.19,32.0,130616,003.1,W*7E
1465833736 $GPRMC,160216,A,4045.47471,N,07402.13430,W,3.17,32.0,130616,003.1,W*71
1465833738 $GPRMC,160218,A,4045.47628,N,07402.13317,W,3.05,32.3,130616,003.1,W*73
1465833739 $GPRMC,160219,A,4045.47701,N,07402.13253,W,3.11,15.5,130616,003.1,W*7F
1465833740 $GPRMC,160220,A,4045.47758,N,07402.13180,W,3.11,14.8,130616,003.1,W*78
1465833741 $GPRMC,160221,A,4045.47849,N,07402.13134,W,3.11,3.2,130616,003.1,W*45
1465833743 $GPRMC,160223,A,4045.48054,N,07402.13125,W,3.97,349.5,130616,003.1,W*48
1465833744 $GPRMC,160224,A,4045.48144,N,07402.13121,W,3.48,354.0,130616,003.1,W*40
1465833745 $GPRMC,160225,A,4045.48237,N,07402.13112,W,3.48,358.9,130616,003.1,W*43
1465833746 $GPRMC,160226,A,4045.48338,N,07402.13096,W,3.48,358.6,130616,003.1,W*4C
1465833748 $GPRMC,160228,A,4045.48454,N,07402.12953,W,2.99,32.0,130616,003.1,W*7A
1465833749 $GPRMC,160229,A,4045.48513,N,07402.12837,W,3.27,47.1,130616,003.1,W*7D
1465833750 $GPRMC,160230,A,4045.48571,N,07402.12735,W,2.99,35.2,130616,003.1,W*7E
1465833751 $GPRMC,160231,A,4045.48637,N,07402.12649,W,3.21,33.4,130616,003.1,W*76
1465833752 $GPRMC,160232,A,4045.48711,N,07402.12565,W,3.21,28.5,130616,003.1,W*76
1465833753 $GPRMC,160233,A,4045.48814,N,07402.12565,W,2.94,22.9,130616,003.1,W*74
1465833755 $GPRMC,160235,A,4045.48984,N,07402.12480,W,3.13,27.4,130616,003.1,W*76
1465833756 $GPRMC,160236,A,4045.49038,N,07402.12402,W,3.13,23.9,130616,003.1,W*79
1465833757 $GPRMC,160237,A,4045.49093,N,07402.12333,W,3.05,23.9,130616,003.1,W*7B
1465833758 $GPRMC,160238,A,4045.49160,N,07402.12267,W,3.05,23.9,130616,003.1,W*79
1465833759 $GPRMC,160239,A,4045.49233,N,07402.12200,W,3.05,21.1,130616,003.1,W*76
1465833760 $GPRMC,160240,A,4045.49323,N,07402.12153,W,3.05,7.7,130616,003.1,W*4F
1465833761 $GPRMC,160241,A,4045.49434,N,07402.12139,W,4.18,357.2,130616,003.1,W*4B
1465833763 $GPRMC,160243,A,4045.49601,N,07402.12058,W,3.19,12.3,130616,003.1,W*7E
1465833764 $GPRMC,160244,A,4045.49667,N,07402.11987,W,3.19,21.1,130616,003.1,W*73
1465833765 $GPRMC,160245,A,4045.49739,N,07402.11913,W,3.42,21.1,130616,003.1,W*7B
1465833767 $GPRMC,160247,A,4045.49845,N,07402.11772,W,2.22,22.1,130616,003.1,W*70
1465833768 $GPRMC,160248,A,4045.49912,N,07402.11710,W,3.19,20.4,130616,003.1,W*76
1465833769 $GPRMC,160249,A,4045.49994,N,07402.11663,W,2.95,11.2,130616,003.1,W*7D
1465833771 $GPRMC,160251,A,4045.50173,N,07402.11635,W,3.15,359.6,130616,003.1,W*4C
1465833772 $GPRMC,160252,A,4045.50234,N,07402.11570,W,3.15,15.5,130616,003.1,W*75
1465833773 $GPRMC,160253,A,4045.50288,N,07402.11473,W,2.78,36.2,130616,003.1,W*7D
1465833775 $GPRMC,160255,A,4045.50395,N,07402.11300,W,2.78,28.5,130616,003.1,W*7D
1465833776 $GPRMC,160256,A,4045.50474,N,07402.11234,W,3.07,20.0,130616,003.1,W*74
1465833777 $GPRMC,160257,A,4045.50567,N,07402.11206,W,3.17,10.2,130616,003.1,W*77
1465833778 $GPRMC,160258,A,4045.50658,N,07402.11208,W,3.07,0.0,130616,003.1,W*4B
1465833780 $GPRMC,160300,A,4045.50832,N,07402.11211,W,3.01,34.8,130616,003.1,W*74
1465833781 $GPRMC,160301,A,4045.50921,N,07402.11151,W,3.01,34.5,130616,003.1,W*7C
1465833782 $GPRMC,160302,A,4045.51009,N,07402.11088,W,2.99,15.5,130616,003.1,W*7B
1465833783 $GPRMC,160303,A,4045.51090,N,07402.11023,W,2.99,15.5,130616,003.1,W*7B
1465833785 $GPRMC,160305,A,4045.51270,N,07402.10902,W,3.07,20.4,130616,003.1,W*7B
1465833786 $GPRMC,160306,A,4045.51353,N,07402.10836,W,3.07,21.1,130616,003.1,W*7A
1465833787 $GPRMC,160307,A,4045.51454,N,07402.10787,W,2.99,20.4,130616,003.1,W*7C
1465833788 $GPRMC,160308,A,4045.51546,N,07402.10736,W,2.94,20.4,130616,003.1,W*76
1465833790 $GPRMC,160310,A,4045.51693,N,07402.10578,W,2.94,51.0,130616,003.1,W*7E
1465833791 $GPRMC,160311,A,4045.51762,N,07402.10514,W,2.88,28.1,130616,003.1,W*78
1465833792 $GPRMC,160312,A,4045.51835,N,07402.10459,W,2.88,28.1,130616,003.1,W*7E
1465833794 $GPRMC,160314,A,4045.51955,N,07402.10323,W,2.12,65.0,130616,003.1,W*7E
1465833795 $GPRMC,160315,A,4045.51989,N,07402.10248,W,2.12,65.0,130616,003.1,W*72
1465833797 $GPRMC,160317,A,4045.52039,N,07402.10165,W,1.67,64.0,130616,003.1,W*7D
1465833798 $GPRMC,160318,A,4045.52081,N,07402.10127,W,1.67,64.0,130616,003.1,W*77
1465833800 $GPRMC,160320,A,4045.52225,N,07402.10024,W,2.68,18.3,130616,003.1,W*76
1465833801 $GPRMC,160321,A,4045.52302,N,07402.09971,W,2.47,18.3,130616,003.1,W*7F
1465833803 $GPRMC,160323,A,4045.52497,N,07402.09887,W,1.13,17.9,130616,003.1,W*79
1465833804 $GPRMC,160324,A,4045.52572,N,07402.09863,W,1.75,17.9,130616,003.1,W*7E
1465833805 $GPRMC,160325,A,4045.52655,N,07402.09824,W,1.75,17.9,130616,003.1,W*7A
1465833806 $GPRMC,160326,A,4045.52758,N,07402.09764,W,2.47,32.7,130616,003.1,W*75
1465833808 $GPRMC,160328,A,4045.52998,N,07402.09649,W,1.46,32.7,130616,003.1,W*75
1465833809 $GPRMC,160329,A,4045.53090,N,07402.09602,W,2.06,32.7,130616,003.1,W*7C
1465833811 $GPRMC,160331,A,4045.53276,N,07402.09503,W,1.83,32.7,130616,003.1,W*73
1465833812 $GPRMC,160332,A,4045.53356,N,07402.09460,W,1.83,32.7,130616,003.1,W*77
1465833813 $GPRMC,160333,A,4045.53434,N,07402.09426,W,1.92,32.7,130616,003.1,W*77
1465833815 $GPRMC,160335,A,4045.53663,N,07402.09460,W,2.25,344.5,130616,003.1,W*4C
1465833816 $GPRMC,160336,A,4045.53742,N,07402.09488,W,2.25,344.2,130616,003.1,W*4C
1465833818 $GPRMC,160338,A,4045.53910,N,07402.09551,W,3.34,344.5,130616,003.1,W*48
1465833819 $GPRMC,160339,A,4045.54018,N,07402.09602,W,3.34,344.5,130616,003.1,W*4A
1465833820 $GPRMC,160340,A,4045.54087,N,07402.09598,W,3.34,344.9,130616,003.1,W*4E
1465833821 $GPRMC,160341,A,4045.54131,N,07402.09546,W,2.10,8.4,130616,003.1,W*41
1465833823 $GPRMC,160343,A,4045.54299,N,07402.09498,W,2.78,3.9,130616,003.1,W*48
1465833824 $GPRMC,160344,A,4045.54369,N,07402.09489,W,2.18,344.2,130616,003.1,W*4C
1465833825 $GPRMC,160345,A,4045.54430,N,07402.09471,W,2.02,344.5,130616,003.1,W*4D
1465833827 $GPRMC,160347,A,4045.54573,N,07402.09343,W,2.92,17.2,130616,003.1,W*74
1465833828 $GPRMC,160348,A,4045.54653,N,07402.09284,W,3.07,3.9,130616,003.1,W*43
1465833829 $GPRMC,160349,A,4045.54729,N,07402.09213,W,2.92,356.5,130616,003.1,W*42
1465833830 $GPRMC,160350,A,4045.54800,N,07402.09138,W,2.92,1.4,130616,003.1,W*44
1465833831 $GPRMC,160351,A,4045.54867,N,07402.09057,W,2.37,2.5,130616,003.1,W*41
1465833832 $GPRMC,160352,A,4045.54924,N,07402.08972,W,2.37,2.5,130616,003.1,W*4B
1465833834 $GPRMC,160354,A,4045.55051,N,07402.08754,W,2.66,2.5,130616,003.1,W*49
1465833835 $GPRMC,160355,A,4045.55118,N,07402.08643,W,2.66,34.5,130616,003.1,W*76
1465833836 $GPRMC,160356,A,4045.55184,N,07402.08536,W,2.72,32.3,130616,003.1,W*74
1465833838 $GPRMC,160358,A,4045.55342,N,07402.08389,W,2.72,16.5,130616,003.1,W*70
1465833839 $GPRMC,160359,A,4045.55427,N,07402.08346,W,2.82,9.1,130616,003.1,W*43
1465833840 $GPRMC,160400,A,4045.55518,N,07402.08303,W,3.15,9.1,130616,003.1,W*4B
1465833841 $GPRMC,160401,A,4045.55601,N,07402.08256,W,3.15,12.0,130616,003.1,W*7B
1465833842 $GPRMC,160402,A,4045.55670,N,07402.08191,W,2.62,21.1,130616,003.1,W*76
1465833843 $GPRMC,160403,A,4045.55734,N,07402.08118,W,2.49,26.0,130616,003.1,W*78
1465833845 $GPRMC,160405,A,4045.55879,N,07402.07995,W,2.59,12.7,130616,003.1,W*7B
1465833846 $GPRMC,160406,A,4045.55961,N,07402.07943,W,2.59,3.2,130616,003.1,W*4E
1465833848 $GPRMC,160408,A,4045.56122,N,07402.07859,W,2.82,1.1,130616,003.1,W*41
1465833849 $GPRMC,160409,A,4045.56183,N,07402.07815,W,2.18,8.8,130616,003.1,W*40
1465833851 $GPRMC,160411,A,4045.56276,N,07402.07769,W,1.83,350.9,130616,003.1,W*4A
1465833852 $GPRMC,160412,A,4045.56276,N,07402.07769,W,0.00,350.9,130616,003.1,W*43
1465833854 $GPRMC,160414,A,4045.56299,N,07402.07744,W,0.52,350.9,130616,003.1,W*4C
1465833855 $GPRMC,160415,A,4045.56316,N,07402.07718,W,0.52,350.9,130616,003.1,W*42
1465833857 $GPRMC,160417,A,4045.56329,N,07402.07646,W,0.68,351.2,130616,003.1,W*45
1465833858 $GPRMC,160418,A,4045.56329,N,07402.07646,W,0.00,351.2,130616,003.1,W*44
1465833860 $GPRMC,160420,A,4045.56311,N,07402.07580,W,0.29,351.2,130616,003.1,W*46
1465833861 $GPRMC,160421,A,4045.56319,N,07402.07598,W,1.05,351.2,130616,003.1,W*49
1465833862 $GPRMC,160422,A,4045.56326,N,07402.07649,W,1.56,351.2,130616,003.1,W*4F
1465833863 $GPRMC,160423,A,4045.56304,N,07402.07666,W,1.54,351.2,130616,003.1,W*41
1465833865 $GPRMC,160425,A,4045.56210,N,07402.07529,W,1.54,125.9,130616,003.1,W*41
1465833866 $GPRMC,160426,A,4045.56169,N,07402.07399,W,1.40,351.2,130616,003.1,W*4D
1465833867 $GPRMC,160427,A,4045.56145,N,07402.07283,W,1.13,351.2,130616,003.1,W*4E
1465833869 $GPRMC,160429,A,4045.56083,N,07402.07013,W,2.25,118.1,130616,003.1,W*4A
1465833870 $GPRMC,160430,A,4045.56038,N,07402.06898,W,2.25,351.2,130616,003.1,W*44
1465833871 $GPRMC,160431,A,4045.55985,N,07402.06824,W,2.14,148.7,130616,003.1,W*43
1465833872 $GPRMC,160432,A,4045.55909,N,07402.06767,W,2.74,163.8,130616,003.1,W*4C
1465833873 $GPRMC,160433,A,4045.55821,N,07402.06749,W,2.78,175.1,130616,003.1,W*48
1465833874 $GPRMC,160434,A,4045.55741,N,07402.06755,W,2.74,188.4,130616,003.1,W*40
1465833875 $GPRMC,160435,A,4045.55657,N,07402.06789,W,2.78,195.8,130616,003.1,W*4A
1465833876 $GPRMC,160436,A,4045.55564,N,07402.06826,W,2.94,189.1,130616,003.1,W*46
1465833878 $GPRMC,160438,A,4045.55358,N,07402.06888,W,3.25,195.8,130616,003.1,W*4A
1465833879 $GPRMC,160439,A,4045.55266,N,07402.06901,W,3.25,195.5,130616,003.1,W*4A
1465833880 $GPRMC,160440,A,4045.55192,N,07402.06907,W,2.12,195.5,130616,003.1,W*4F
1465833881 $GPRMC,160441,A,4045.55128,N,07402.06929,W,2.12,195.5,130616,003.1,W*43
1465833882 $GPRMC,160442,A,4045.55067,N,07402.06959,W,2.04,195.8,130616,003.1,W*47
1465833884 $GPRMC,160444,A,4045.54924,N,07402.07017,W,2.04,195.5,130616,003.1,W*41
1465833885 $GPRMC,160445,A,4045.54842,N,07402.07007,W,1.75,195.1,130616,003.1,W*41
1465833886 $GPRMC,160446,A,4045.54741,N,07402.06977,W,2.57,183.9,130616,003.1,W*4D
1465833887 $GPRMC,160447,A,4045.54636,N,07402.06953,W,2.57,194.8,130616,003.1,W*4C
1465833889 $GPRMC,160449,A,4045.54419,N,07402.07018,W,2.51,212.0,130616,003.1,W*49
1465833890 $GPRMC,160450,A,4045.54320,N,07402.07061,W,2.31,217.3,130616,003.1,W*42
1465833891 $GPRMC,160451,A,4045.54232,N,07402.07109,W,2.49,216.9,130616,003.1,W*4A
1465833893 $GPRMC,160453,A,4045.54055,N,07402.07162,W,2.49,216.6,130616,003.1,W*49
1465833894 $GPRMC,160454,A,4045.53975,N,07402.07161,W,1.92,216.2,130616,003.1,W*40
1465833895 $GPRMC,160455,A,4045.53903,N,07402.07204,W,1.92,214.8,130616,003.1,W*48
1465833897 $GPRMC,160457,A,4045.53750,N,07402.07273,W,2.84,203.2,130616,003.1,W*4A
1465833898 $GPRMC,160458,A,4045.53681,N,07402.07281,W,2.68,192.0,130616,003.1,W*4E
1465833899 $GPRMC,160459,A,4045.53583,N,07402.07292,W,2.84,191.6,130616,003.1,W*4B
1465833901 $GPRMC,160501,A,4045.53365,N,07402.07341,W,3.17,203.9,130616,003.1,W*4A
1465833902 $GPRMC,160502,A,4045.53263,N,07402.07373,W,3.17,203.9,130616,003.1,W*4F
1465833903 $GPRMC,160503,A,4045.53163,N,07402.07442,W,3.15,206.4,130616,003.1,W*42
1465833905 $GPRMC,160505,A,4045.52995,N,07402.07590,W,2.60,197.2,130616,003.1,W*44
1465833906 $GPRMC,160506,A,4045.52912,N,07402.07637,W,2.66,195.1,130616,003.1,W*41
1465833907 $GPRMC,160507,A,4045.52814,N,07402.07676,W,2.66,192.3,130616,003.1,W*47
1465833908 $GPRMC,160508,A,4045.52733,N,07402.07700,W,2.66,192.3,130616,003.1,W*42
1465833909 $GPRMC,160509,A,4045.52666,N,07402.07741,W,3.19,192.7,130616,003.1,W*4A
1465833910 $GPRMC,160510,A,4045.52597,N,07402.07784,W,2.55,192.7,130616,003.1,W*4F
1465833912 $GPRMC,160512,A,4045.52486,N,07402.07775,W,1.96,192.0,130616,003.1,W*49
1465833913 $GPRMC,160513,A,4045.52444,N,07402.07761,W,1.75,192.0,130616,003.1,W*4E
1465833914 $GPRMC,160514,A,4045.52359,N,07402.07773,W,2.84,206.4,130616,003.1,W*46
1465833915 $GPRMC,160515,A,4045.52263,N,07402.07788,W,3.19,194.4,130616,003.1,W*46
1465833916 $GPRMC,160516,A,4045.52154,N,07402.07797,W,3.19,193.7,130616,003.1,W*48
1465833917 $GPRMC,160517,A,4045.52060,N,07402.07798,W,3.19,193.7,130616,003.1,W*40
1465833919 $GPRMC,160519,A,4045.51948,N,07402.07816,W,2.20,194.1,130616,003.1,W*4D
1465833920 $GPRMC,160520,A,4045.51894,N,07402.07875,W,3.38,221.5,130616,003.1,W*43
1465833921 $GPRMC,160521,A,4045.51821,N,07402.07950,W,3.38,213.0,130616,003.1,W*4E
1465833923 $GPRMC,160523,A,4045.51661,N,07402.08093,W,3.36,210.9,130616,003.1,W*4B
1465833924 $GPRMC,160524,A,4045.51576,N,07402.08155,W,3.36,210.9,130616,003.1,W*42
1465833925 $GPRMC,160525,A,4045.51491,N,07402.08217,W,3.36,198.6,130616,003.1,W*42
1465833926 $GPRMC,160526,A,4045.51437,N,07402.08278,W,2.43,199.0,130616,003.1,W*40
1465833927 $GPRMC,160527,A,4045.51395,N,07402.08339,W,1.92,199.0,130616,003.1,W*45
1465833929 $GPRMC,160529,A,4045.51300,N,07402.08414,W,2.41,195.8,130616,003.1,W*46
1465833930 $GPRMC,160530,A,4045.51219,N,07402.08444,W,2.41,195.8,130616,003.1,W*42
1465833931 $GPRMC,160531,A,4045.51159,N,07402.08456,W,2.41,195.5,130616,003.1,W*4A
1465833933 $GPRMC,160533,A,4045.51021,N,07402.08531,W,2.64,213.0,130616,003.1,W*49
1465833934 $GPRMC,160534,A,4045.50948,N,07402.08596,W,2.64,213.4,130616,003.1,W*40
1465833936 $GPRMC,160536,A,4045.50855,N,07402.08734,W,2.57,214.5,130616,003.1,W*43
1465833937 $GPRMC,160537,A,4045.50830,N,07402.08789,W,1.92,214.5,130616,003.1,W*4D
1465833938 $GPRMC,160538,A,4045.50793,N,07402.08841,W,1.92,214.5,130616,003.1,W*4F
1465833940 $GPRMC,160540,A,4045.50718,N,07402.08919,W,1.63,214.5,130616,003.1,W*41
1465833941 $GPRMC,160541,A,4045.50701,N,07402.08964,W,1.01,214.5,130616,003.1,W*46
1465833942 $GPRMC,160542,A,4045.50686,N,07402.09010,W,0.76,214.5,130616,003.1,W*41
1465833943 $GPRMC,160543,A,4045.50672,N,07402.09068,W,1.30,214.5,130616,003.1,W*47
1465833944 $GPRMC,160544,A,4045.50647,N,07402.09123,W,1.30,214.5,130616,003.1,W*48
1465833946 $GPRMC,160546,A,4045.50451,N,07402.09246,W,2.45,205.7,130616,003.1,W*4C
1465833947 $GPRMC,160547,A,4045.50358,N,07402.09295,W,2.45,214.5,130616,003.1,W*4F
1465833948 $GPRMC,160548,A,4045.50258,N,07402.09341,W,2.78,203.2,130616,003.1,W*46
1465833950 $GPRMC,160550,A,4045.50054,N,07402.09419,W,2.76,203.9,130616,003.1,W*4E
1465833951 $GPRMC,160551,A,4045.49953,N,07402.09466,W,2.76,195.8,130616,003.1,W*4C
1465833952 $GPRMC,160552,A,4045.49862,N,07402.09513,W,2.22,195.5,130616,003.1,W*43
1465833954 $GPRMC,160554,A,4045.49677,N,07402.09620,W,2.49,194.8,130616,003.1,W*4D
1465833955 $GPRMC,160555,A,4045.49589,N,07402.09671,W,2.57,198.6,130616,003.1,W*47
1465833956 $GPRMC,160556,A,4045.49503,N,07402.09729,W,2.49,199.3,130616,003.1,W*41
1465833957 $GPRMC,160557,A,4045.49416,N,07402.09786,W,2.53,208.1,130616,003.1,W*42
1465833959 $GPRMC,160559,A,4045.49251,N,07402.09932,W,2.53,208.1,130616,003.1,W*48
1465833960 $GPRMC,160600,A,4045.49144,N,07402.10036,W,3.48,208.1,130616,003.1,W*4E
1465833962 $GPRMC,160602,A,4045.48984,N,07402.10165,W,2.43,206.7,130616,003.1,W*4C
1465833963 $GPRMC,160603,A,4045.48908,N,07402.10195,W,1.98,207.1,130616,003.1,W*44
1465833964 $GPRMC,160604,A,4045.48825,N,07402.10218,W,1.98,207.4,130616,003.1,W*4E
1465833965 $GPRMC,160605,A,4045.48732,N,07402.10260,W,2.33,210.2,130616,003.1,W*4B
1465833967 $GPRMC,160607,A,4045.48547,N,07402.10364,W,2.97,201.1,130616,003.1,W*41
1465833968 $GPRMC,160608,A,4045.48467,N,07402.10411,W,2.53,201.1,130616,003.1,W*40
1465833969 $GPRMC,160609,A,4045.48386,N,07402.10478,W,2.53,221.5,130616,003.1,W*40
1465833970 $GPRMC,160610,A,4045.48304,N,07402.10553,W,3.03,221.5,130616,003.1,W*4E
1465833971 $GPRMC,160611,A,4045.48217,N,07402.10632,W,3.52,197.2,130616,003.1,W*45
1465833972 $GPRMC,160612,A,4045.48120,N,07402.10698,W,3.52,197.6,130616,003.1,W*45
1465833973 $GPRMC,160613,A,4045.48034,N,07402.10750,W,3.52,198.3,130616,003.1,W*4F
1465833974 $GPRMC,160614,A,4045.47955,N,07402.10799,W,3.05,199.0,130616,003.1,W*4C
1465833975 $GPRMC,160615,A,4045.47885,N,07402.10844,W,2.35,198.6,130616,003.1,W*4B
1465833977 $GPRMC,160617,A,4045.47779,N,07402.10962,W,2.35,230.3,130616,003.1,W*44
1465833978 $GPRMC,160618,A,4045.47727,N,07402.11032,W,2.47,229.6,130616,003.1,W*45
1465833979 $GPRMC,160619,A,4045.47667,N,07402.11105,W,2.84,229.6,130616,003.1,W*4B
1465833980 $GPRMC,160620,A,4045.47598,N,07402.11163,W,2.97,211.6,130616,003.1,W*4B
1465833982 $GPRMC,160622,A,4045.47449,N,07402.11270,W,2.99,207.1,130616,003.1,W*4B
1465833983 $GPRMC,160623,A,4045.47385,N,07402.11334,W,2.99,209.5,130616,003.1,W*46
1465833984 $GPRMC,160624,A,4045.47329,N,07402.11395,W,2.62,229.9,130616,003.1,W*46
1465833985 $GPRMC,160625,A,4045.47284,N,07402.11439,W,1.46,229.6,130616,003.1,W*4A
1465833986 $GPRMC,160626,A,4045.47237,N,07402.11477,W,2.51,207.1,130616,003.1,W*45
1465833988 $GPRMC,160628,A,4045.47086,N,07402.11584,W,2.57,214.5,130616,003.1,W*4E
1465833989 $GPRMC,160629,A,4045.47039,N,07402.11608,W,2.57,214.5,130616,003.1,W*4C
1465833990 $GPRMC,160630,A,4045.46991,N,07402.11628,W,2.00,214.5,130616,003.1,W*4E
1465833991 $GPRMC,160631,A,4045.46931,N,07402.11651,W,2.00,214.5,130616,003.1,W*4B
1465833993 $GPRMC,160633,A,4045.46774,N,07402.11723,W,2.66,195.8,130616,003.1,W*45
1465833994 $GPRMC,160634,A,4045.46705,N,07402.11745,W,2.66,195.5,130616,003.1,W*49
1465833996 $GPRMC,160636,A,4045.46584,N,07402.11782,W,2.25,195.5,130616,003.1,W*4C
1465833997 $GPRMC,160637,A,4045.46503,N,07402.11809,W,2.25,197.2,130616,003.1,W*4B
1465833998 $GPRMC,160638,A,4045.46413,N,07402.11842,W,3.15,197.2,130616,003.1,W*49
1465834000 $GPRMC,160640,A,4045.46254,N,07402.11932,W,2.92,209.9,130616,003.1,W*44
1465834001 $GPRMC,160641,A,4045.46167,N,07402.11998,W,2.92,207.8,130616,003.1,W*49
1465834003 $GPRMC,160643,A,4045.45992,N,07402.12132,W,3.48,215.9,130616,003.1,W*45
1465834004 $GPRMC,160644,A,4045.45913,N,07402.12203,W,2.78,215.5,130616,003.1,W*44
1465834006 $GPRMC,160646,A,4045.45735,N,07402.12331,W,3.21,212.0,130616,003.1,W*43
1465834007 $GPRMC,160647,A,4045.45642,N,07402.12388,W,3.54,211.3,130616,003.1,W*43
1465834008 $GPRMC,160648,A,4045.45554,N,07402.12457,W,3.44,209.5,130616,003.1,W*43
1465834010 $GPRMC,160650,A,4045.45380,N,07402.12586,W,3.54,209.5,130616,003.1,W*49
1465834011 $GPRMC,160651,A,4045.45303,N,07402.12632,W,3.54,209.2,130616,003.1,W*48
1465834012 $GPRMC,160652,A,4045.45249,N,07402.12673,W,2.74,209.5,130616,003.1,W*45
1465834013 $GPRMC,160653,A,4045.45196,N,07402.12691,W,2.74,221.1,130616,003.1,W*47
1465834015 $GPRMC,160655,A,4045.45062,N,07402.12786,W,3.17,208.8,130616,003.1,W*4A
1465834016 $GPRMC,160656,A,4045.44988,N,07402.12822,W,3.17,201.1,130616,003.1,W*44
1465834017 $GPRMC,160657,A,4045.44903,N,07402.12854,W,2.94,201.1,130616,003.1,W*4D
1465834018 $GPRMC,160658,A,4045.44820,N,07402.12885,W,2.95,201.1,130616,003.1,W*4F
1465834020 $GPRMC,160700,A,4045.44642,N,07402.12957,W,3.48,203.2,130616,003.1,W*47
1465834021 $GPRMC,160701,A,4045.44545,N,07402.12997,W,3.48,203.2,130616,003.1,W*4E
1465834022 $GPRMC,160702,A,4045.44460,N,07402.13025,W,3.48,204.3,130616,003.1,W*4C
1465834023 $GPRMC,160703,A,4045.44384,N,07402.13046,W,2.76,204.6,130616,003.1,W*4C
1465834025 $GPRMC,160705,A,4045.44193,N,07402.13117,W,2.57,197.9,130616,003.1,W*4E
